store_number,name,latitude,longitude,full_address,address,city,state,zipcode,county,phone
3587,Savitz Drug Health Mart Pharmacy,34.161994,-82.3823141,"815 W Greenwood St, Abbeville, SC, 29620",815 W Greenwood St,Abbeville,SC,29620,Abbeville,864-366-2165
19338,Community Pharmacy,30.3969254,-92.2098871,"731 S Main St Suite B, Church Point, LA, 70525",731 S Main St Suite B,Church Point,LA,70525,Acadia Parish,337-684-1911
8114,Medsync Pharmacy,43.5969088,-116.2140033,"801 S Vista Avenue, Boise, ID, 83705",801 S Vista Avenue,Boise,ID,83705,Ada,208-364-7777
20202,Timberline Pharmacy,43.6464097,-116.4329176,"4574 N Ten Mile Rd 110, Meridian, ID, 83646",4574 N Ten Mile Rd 110,Meridian,ID,83646,Ada,208-616-1722
7392,North Century Pharmacy,37.1491574,-85.306371,"3058 Campbellsville Rd, Columbia, KY, 42728",3058 Campbellsville Rd,Columbia,KY,42728,Adair,270-380-1230
6486,Century Medicines,37.0895506,-85.3036832,"706 Jamestown St Pob 97, Columbia, KY, 42728",706 Jamestown St Pob 97,Columbia,KY,42728,Adair,270-384-5874
9260,Kirksville Pharmacy,40.1817799,-92.5704693,"1611 S Baltimore St Ste B, Kirksville, MO, 63501",1611 S Baltimore St Ste B,Kirksville,MO,63501,Adair,660-956-7010
4842,Stilwell Health Mart Pharmacy,35.8125145,-94.6288957,"202 S 2nd Street, Stilwell, OK, 74960",202 S 2nd Street,Stilwell,OK,74960,Adair,918-696-2500
6794,Westville Prescription Center Health Mart,35.9925829,-94.5679988,"301s Williams St Po 405, Westville, OK, 74965",301s Williams St Po 405,Westville,OK,74965,Adair,918-723-5466
7848,Kaup Pharmacy,40.6578464,-84.9495072,"104 W Main St, Berne, IN, 46711",104 W Main St,Berne,IN,46711,Adams,260-589-3330
2406,Crosier Park Health Mart Pharmacy,40.6009986,-98.3769552,"405 East 14th Street, Hastings, NE, 68901",405 East 14th Street,Hastings,NE,68901,Adams,402-462-4600
9177,Wagener Drug,33.6502113,-81.3625843,"129 N Main St, Wagener, SC, 29164",129 N Main St,Wagener,SC,29164,Aiken,803-564-5381
7612,Hawthorne Aiken Pharmacy,33.5775453,-81.7656822,"410 University Pkwy 2800, Aiken, SC, 29801",410 University Pkwy 2800,Aiken,SC,29801,Aiken,803-648-2985
9243,Hibbitts Drug Co,33.432037,-81.6859737,"735 North Main Street, New Ellenton, SC, 29809",735 North Main Street,New Ellenton,SC,29809,Aiken,803-443-0077
21687,Riverwood Aitkin Pharmacy,46.515295,-93.7094951,"171 Red Oak Dr, Aitkin, MN, 56431",171 Red Oak Dr,Aitkin,MN,56431,Aitkin,218-429-4344
19514,Gainesville Pharmacy,29.6551373,-82.4200314,"7261 Nw 4th Blvd, Gainesville, FL, 32608",7261 Nw 4th Blvd,Gainesville,FL,32608,Alachua,352-429-4633
7857,Caring Pharmacy,29.8110167,-82.5600003,"19214 Nw Hwy 441 10, High Springs, FL, 32643",19214 Nw Hwy 441 10,High Springs,FL,32643,Alachua,386-454-1586
7264,New Oakland Pharmacy Lake Merritt,37.7944092,-122.2455364,"250 East 18th St 3rd Fl, Oakland, CA, 94606",250 East 18th St 3rd Fl,Oakland,CA,94606,Alameda,510-628-0878
5911,Wellspring Health Mart Pharmacy,37.826997,-122.2511645,"4184-C Piedmont Ave, Oakland, CA, 94611",4184-C Piedmont Ave,Oakland,CA,94611,Alameda,510-428-1559
17395,Bradford Pharmacy,37.7998655,-122.273553,"445 8th Street, Oakland, CA, 94607",445 8th Street,Oakland,CA,94607,Alameda,510-451-1388
9222,Jade Pharmacy,37.5750794,-122.0387125,"34460 Fremont Blvd Ste B, Fremont, CA, 94555",34460 Fremont Blvd Ste B,Fremont,CA,94555,Alameda,510-792-4742
3196,Mission Health Pharmacy,37.6774998,-122.0901677,"22138 Mission Blvd, Hayward, CA, 94541",22138 Mission Blvd,Hayward,CA,94541,Alameda,510-581-8540
9270,Valor Compounding Phcy,37.8646894,-122.2671647,"2461 Shattuck Ave, Berkeley, CA, 94704",2461 Shattuck Ave,Berkeley,CA,94704,Alameda,510-548-8777
9261,Postmeds,37.6361915,-122.1212852,"3121 Diablo Avenue, Hayward, CA, 94545",3121 Diablo Avenue,Hayward,CA,94545,Alameda,650-353-5495
21964,Nowrx Hayward,37.6294013,-122.0560149,"29233 Pacific, Hayward, CA, 94544",29233 Pacific,Hayward,CA,94544,Alameda,510-327-7000
8911,Children's Clinic Pharmacy,37.8368996,-122.2671455,"747 52nd Street, Oakland, CA, 94609",747 52nd Street,Oakland,CA,94609,Alameda,510-428-3166
3275,Nichols Hill Health Mart Pharmacy,37.8175092,-122.2642842,"2844 Summit Street, Oakland, CA, 94609",2844 Summit Street,Oakland,CA,94609,Alameda,510-893-8841
3267,New Oakland Health Mart Pharmacy,37.8004548,-122.2717025,"388 - 9th St 108, Oakland, CA, 94607",388 - 9th St 108,Oakland,CA,94607,Alameda,510-763-3282
7729,Tennyson Pharmacy,37.6324319,-122.0676415,"589 W Tennyson Rd, Hayward, CA, 94544",589 W Tennyson Rd,Hayward,CA,94544,Alameda,510-266-0800
8918,Oakland Clinic Pharmacy,37.8385276,-122.2609602,"5220 Claremont Ave, Oakland, CA, 94618",5220 Claremont Ave,Oakland,CA,94618,Alameda,510-428-4088
3268,New Oakland Health Mart Pharmacy #1,37.799496,-122.270488,"333 - 9th Street, Oakland, CA, 94607",333 - 9th Street,Oakland,CA,94607,Alameda,510-628-0368
18566,Access Pharmacy,37.7905417,-122.2205076,"2693 Fruitvale Ave, Oakland, CA, 94601",2693 Fruitvale Ave,Oakland,CA,94601,Alameda,800-555-5555
19074,Prime Health Pharmacy,37.8571361,-122.259236,"2915 Telegraph Ave 100, Berkeley, CA, 94705",2915 Telegraph Ave 100,Berkeley,CA,94705,Alameda,510-570-2103
3273,New Tiburcio Health Mart Pharmacy,37.602621,-122.026412,"33255 9th Street, Union City, CA, 94587",33255 9th Street,Union City,CA,94587,Alameda,510-489-8088
17222,Pleasant Care Pharmacy,37.6798345,-122.0716523,"1652 B Street, Hayward, CA, 94541",1652 B Street,Hayward,CA,94541,Alameda,510-200-9984
3098,Marra's Health Mart Pharmacy,42.771083,-73.700226,"217 Remsen Street, Cohoes, NY, 12047",217 Remsen Street,Cohoes,NY,12047,Albany,518-237-2110
16587,Pole Mountain Pharmacy,41.3196443,-105.5917443,"319 E Harney St, Laramie, WY, 82072",319 E Harney St,Laramie,WY,82072,Albany,800-555-5555
4267,Smith Drug Health Mart Pharmacy,34.7660968,-88.5310766,"90 Main St/ Po Bx 138, Rienzi, MS, 38865",90 Main St/ Po Bx 138,Rienzi,MS,38865,Alcorn,662-462-5314
3144,Medical Plaza Health Mart Pharmacy,34.9322902,-88.5586434,"111 Alcorn Drive, Corinth, MS, 38834",111 Alcorn Drive,Corinth,MS,38834,Alcorn,662-286-6991
5815,Medical Plaza Health Mart Pharmacy On Harpert Pharmacy,34.9151007,-88.5004099,"1425 South Harper Rd, Corinth, MS, 38834",1425 South Harper Rd,Corinth,MS,38834,Alcorn,662-286-6337
5183,Town & Drug Health Mart,35.923421,-81.17461,"53 East Main Avenue, Taylorsville, NC, 28681",53 East Main Avenue,Taylorsville,NC,28681,Alexander,828-632-2278
3397,Peoples Drug Health Mart Pharmacy,35.9216963,-81.179717,"255 Nc Highway 16 South, Taylorsville, NC, 28681",255 Nc Highway 16 South,Taylorsville,NC,28681,Alexander,828-632-2271
22193,Duke Pharmacy,38.8110471,-77.1212354,"5130 Duke St Ste 7b, Alexandria, VA, 22304",5130 Duke St Ste 7b,Alexandria,VA,22304,Alexandria city,703-647-9939
8390,Medplus Pharmacy,38.811267,-77.1214217,"5130 Duke St Ste 2, Alexandria, VA, 22304",5130 Duke St Ste 2,Alexandria,VA,22304,Alexandria city,703-751-1111
6013,Smith Drug,36.7575242,-98.3571095,"121 South Grand, Cherokee, OK, 73728",121 South Grand,Cherokee,OK,73728,Alfalfa,580-596-2764
3483,Putvin's Health Mart Pharmacy,46.4107501,-86.6552985,"119 Elm Avenue, Munising, MI, 49862",119 Elm Avenue,Munising,MI,49862,Alger,906-387-2248
17940,The Prescription Shoppe,43.08639,-91.5680347,"139 N Lawler Rd Po Box773, Postville, IA, 52162",139 N Lawler Rd Po Box773,Postville,IA,52162,Allamakee,563-863-3666
7456,Allegan Medical Center Pharmacy,42.519662,-85.8562207,"551 Linn Street Ste 120, Allegan, MI, 49010",551 Linn Street Ste 120,Allegan,MI,49010,Allegan,269-673-4700
6210,Potomac Valley,39.6575197,-78.7694018,"501 N Centre Street, Cumberland, MD, 21502",501 N Centre Street,Cumberland,MD,21502,Allegany,301-722-2342
2981,Lavale Health Mart Pharmacy,39.6371677,-78.8352671,"1221 C National Highway, Cumberland, MD, 21502",1221 C National Highway,Cumberland,MD,21502,Allegany,301-729-3535
3922,Walsh-Mccagh Kellough Health Mart Pharmacy,39.6531202,-78.7624201,"101 N Centre Street, Cumberland, MD, 21502",101 N Centre Street,Cumberland,MD,21502,Allegany,301-724-3646
5192,Fillmore Health Mart Pharmacy,42.458339,-78.111493,"10560 Rt 19, Fillmore, NY, 14735",10560 Rt 19,Fillmore,NY,14735,Allegany,585-567-2228
2414,Cuba Health Mart Pharmacy,42.2219382,-78.2781046,"2 Center Street, Cuba, NY, 14727",2 Center Street,Cuba,NY,14727,Allegany,585-968-3111
2603,Fisher Health Mart Pharmacy,42.12224,-77.948165,"138 North Main St, Wellsville, NY, 14895",138 North Main St,Wellsville,NY,14895,Allegany,585-593-2611
4070,Lebanon Shops,40.368716,-80.034629,"300 Mt Lebanon Blvd, Pittsburgh, PA, 15234",300 Mt Lebanon Blvd,Pittsburgh,PA,15234,Allegheny,412-344-6700
3352,Palmer Health Mart Pharmacy,40.6175172,-79.8334603,"738 Little Deer Creek Valley Road, Russellton, PA, 15076",738 Little Deer Creek Valley Road,Russellton,PA,15076,Allegheny,724-265-1632
21100,Hampton Pharmacy And Wellness,40.5923694,-79.9474462,"4678 William Flynn Hwy, Allison Park, PA, 15101",4678 William Flynn Hwy,Allison Park,PA,15101,Allegheny,412-426-7866
19561,North Shore Health Mart Pharmacy,40.4486399,-80.0012175,"127 Anderson St Ste 101, Pittsburgh, PA, 15212",127 Anderson St Ste 101,Pittsburgh,PA,15212,Allegheny,724-494-7615
9048,Carrick Pharmacy,40.3839796,-79.9771863,"2717 Brownsville Rd, Pittsburgh, PA, 15227",2717 Brownsville Rd,Pittsburgh,PA,15227,Allegheny,412-206-0996
6174,Towne Drug Health Mart Pharmacy,40.4902839,-79.9039227,"227 Commercial Ave, Pittsburgh, PA, 15215",227 Commercial Ave,Pittsburgh,PA,15215,Allegheny,412-782-2244
5656,Wilson's Health Mart Pharmacy,40.4659101,-79.955253,"4101 Penn Ave, Pittsburgh, PA, 15224",4101 Penn Ave,Pittsburgh,PA,15224,Allegheny,412-621-6471
2160,Bloomfield Drug Health Mart Pharmacy,40.4616024,-79.948922,"4727 Liberty Avenue, Pittsburgh, PA, 15224",4727 Liberty Avenue,Pittsburgh,PA,15224,Allegheny,412-682-4909
21790,Doctors Pharmacy Lima,40.7404312,-84.1235705,"920 W Market St Ste 101, Lima, OH, 45805",920 W Market St Ste 101,Lima,OH,45805,Allen,614-641-9687
2252,Canal Health Mart Pharmacy,40.707513,-84.354427,"102 South Broadway, Spencerville, OH, 45887",102 South Broadway,Spencerville,OH,45887,Allen,419-647-4584
8148,Oakdale Drug,30.8171303,-92.6447708,"149 Hospital Dr, Oakdale, LA, 71463",149 Hospital Dr,Oakdale,LA,71463,Allen Parish,318-335-1360
19971,Freds 2124/Sincere Rx,30.4809684,-92.8504639,"715 First Ave, Kinder, LA, 70648",715 First Ave,Kinder,LA,70648,Allen Parish,337-738-2614
3754,The Drug Health Mart Pharmacy,45.0933023,-83.4573279,"2236 Us 23 South, Alpena, MI, 49707",2236 Us 23 South,Alpena,MI,49707,Alpena,989-354-2171
4573,Liberty Drugstore Health Mart Pharmacy,31.1580506,-90.8087448,"110 Main Street, Liberty, MS, 39645",110 Main Street,Liberty,MS,39645,Amite,601-657-8051
18559,"Oaks Pharmacy, Llc",34.5527511,-82.6291824,"2116 N Highway 81, Anderson, SC, 29621",2116 N Highway 81,Anderson,SC,29621,Anderson,864-844-9370
7622,Professional Pharmacy,34.5156798,-82.6547899,"1409 N Main St, Anderson, SC, 29621",1409 N Main St,Anderson,SC,29621,Anderson,864-224-3581
17828,Iva Drug Store,34.3066333,-82.6626695,"720 East Front Street, Iva, SC, 29655",720 East Front Street,Iva,SC,29655,Anderson,864-348-6138
20038,Honea Path Pharamcy,34.4465163,-82.3886686,"309 E Greer St, Honea Path, SC, 29654",309 E Greer St,Honea Path,SC,29654,Anderson,864-369-5337
6295,Anderson Crossing,36.186247,-84.059243,"3318 Andersonville Hwy, Andersonville, TN, 37705",3318 Andersonville Hwy,Andersonville,TN,37705,Anderson,865-494-8444
18653,Oak Ridge Pharmacy,36.0137944,-84.2549764,"854 Main Street West, Oak Ridge, TN, 37830",854 Main Street West,Oak Ridge,TN,37830,Anderson,865-482-0345
20280,Corner Drug,36.2171332,-84.1540527,"414 Main St, Rocky Top, TN, 37769",414 Main St,Rocky Top,TN,37769,Anderson,865-426-2851
22014,Abeldts Gaslight Phcy,31.3323111,-94.7527785,"200 Gaslight Blvd, Lufkin, TX, 75904",200 Gaslight Blvd,Lufkin,TX,75904,Angelina,800-555-5555
9416,Mike's Pharmacy II,39.1240908,-76.5233153,"3820 Mountain Rd Ste G, Pasadena, MD, 21122",3820 Mountain Rd Ste G,Pasadena,MD,21122,Anne Arundel,410-255-0099
17979,Soleil Pharmacy,39.1476933,-76.6404138,"801 Landmark Dr Ste B, Glen Burnie, MD, 21061",801 Landmark Dr Ste B,Glen Burnie,MD,21061,Anne Arundel,443-281-9157
8356,Arundel Pharmacy,39.157848,-76.6182487,"7571 Ritchie Hwy, Glen Burnie, MD, 21061",7571 Ritchie Hwy,Glen Burnie,MD,21061,Anne Arundel,410-761-3443
9194,Patient Care Pharmacy,38.9825581,-76.5356506,"2047 West St Ste A, Annapolis, MD, 21401",2047 West St Ste A,Annapolis,MD,21401,Anne Arundel,443-949-9005
8610,Hilltop Drugs Etc,42.1353441,-98.0298686,"108 W 11th St, Neligh, NE, 68756",108 W 11th St,Neligh,NE,68756,Antelope,402-887-5551
19507,Wanek Pharmacy,42.1290003,-98.0303001,"410 Main Street, Neligh, NE, 68756",410 Main Street,Neligh,NE,68756,Antelope,402-887-5426
7972,Stan's Pharmacy,31.7804979,-82.3550737,"438 W Parker St, Baxley, GA, 31513",438 W Parker St,Baxley,GA,31513,Appling,912-367-1155
20301,Front Range Pharmacy,39.6546989,-104.9882193,"3401 S Broadway, Englewood, CO, 80110",3401 S Broadway,Englewood,CO,80110,Arapahoe,720-405-5125
21916,Apex Pharmacy,39.6969775,-104.8433586,"12597 E Mississippi 300, Aurora, CO, 80012",12597 E Mississippi 300,Aurora,CO,80012,Arapahoe,678-755-5601
16920,Hp Compounding Pharmacy And Medical Supply,39.6879093,-104.8678323,"1555 S Havana St Unit Hj, Aurora, CO, 80012",1555 S Havana St Unit Hj,Aurora,CO,80012,Arapahoe,303-750-3600
8754,Allhealth Network Pharmacy,39.6165359,-105.014786,"5500 S Sycamore St 100, Littleton, CO, 80120",5500 S Sycamore St 100,Littleton,CO,80120,Arapahoe,303-797-2500
7928,Elite Pharmacy Inc,39.5704998,-104.987262,"8100 S Lincoln St, Littleton, CO, 80122",8100 S Lincoln St,Littleton,CO,80122,Arapahoe,303-248-7234
17970,80122,39.577272,-104.987047,"7720 S Broadway Suite 1, Littleton, CO, 80122",7720 S Broadway Suite 1,Littleton,CO,80122,Arapahoe,720-627-6123
20365,Eagle Pharmacy,33.8084309,-98.6901001,"754 Fm 368s, Holliday, TX, 76366",754 Fm 368s,Holliday,TX,76366,Archer,940-583-4376
19416,Coker Hampton Drug,34.5005362,-91.5530059,"218 S Main St, Stuttgart, AR, 72160",218 S Main St,Stuttgart,AR,72160,Arkansas,870-673-2691
4773,Hiland Health Pharmacy,40.806423,-79.5307459,"231 Butler Road, Kittanning, PA, 16201",231 Butler Road,Kittanning,PA,16201,Armstrong,724-543-2504
21774,Viallon Drug Co,30.0995761,-90.9908603,"309 Marchand Dr, Donaldsonville, LA, 70346",309 Marchand Dr,Donaldsonville,LA,70346,Ascension Parish,800-555-5555
5301,Huhn Rx Health Mart Pharmacy,46.588588,-90.888958,"522 West Main St, Ashland, WI, 54806",522 West Main St,Ashland,WI,54806,Ashland,715-682-3123
6332,Herbert's Pharmacy,41.6071601,-80.5680305,"270 E Main St, Andover, OH, 44003",270 E Main St,Andover,OH,44003,Ashtabula,440-293-6358
19797,Owl Tri-State Pharmacy,46.4029618,-117.0574781,"1275 Highland Ave, Clarkston, WA, 99403",1275 Highland Ave,Clarkston,WA,99403,Asotin,509-758-5533
22099,Jourdanton Pharmacy,28.930218,-98.5267672,"1810 East State Hwy 97, Jourdanton, TX, 78026",1810 East State Hwy 97,Jourdanton,TX,78026,Atascosa,830-770-0770
3522,Rexco Health Mart Pharmacy,28.9593027,-98.4852497,"120 N Smith Street, Pleasanton, TX, 78064",120 N Smith Street,Pleasanton,TX,78064,Atascosa,830-569-4060
19509,Save Rx Discount Pharmacy,29.231327,-98.7884601,"15101 Main St Ste 107, Lytle, TX, 78052",15101 Main St Ste 107,Lytle,TX,78052,Atascosa,830-988-0100
8090,Kex Rx Pharmacy & Home Care,39.6720372,-95.5295576,"1903 Euclid, Horton, KS, 66439",1903 Euclid,Horton,KS,66439,Atchison,785-486-3651
8100,Kex Rx Pharmacy & Home Care,39.56095,-95.1241168,"807 Main Street, Atchison, KS, 66002",807 Main Street,Atchison,KS,66002,Atchison,913-367-5252
7669,Stoner Drug,40.4120126,-95.5146611,"315 South Main Street, Rock Port, MO, 64482",315 South Main Street,Rock Port,MO,64482,Atchison,660-744-2433
17756,Shrivers Pharmacy And Wellness,39.3304067,-82.1188897,"310 West Union St Ste 101, Athens, OH, 45701",310 West Union St Ste 101,Athens,OH,45701,Athens,740-452-7685
4111,Shriver's Health Mart Pharmacy #4,39.45709,-82.227737,"40 Watkins Street, Nelsonville, OH, 45764",40 Watkins Street,Nelsonville,OH,45764,Athens,740-753-2484
7313,Ritter Express Pharmacy,34.3794187,-96.1305966,"744 S Mississippi Ave A, Atoka, OK, 74525",744 S Mississippi Ave A,Atoka,OK,74525,Atoka,580-889-0230
4408,Pickles Drug Health Mart Pharmacy,33.0577082,-89.5899002,"100 N Jackson St, Kosciusko, MS, 39090",100 N Jackson St,Kosciusko,MS,39090,Attala,662-289-1112
5647,County Market Pharmacy 392,39.3030234,-91.5033207,"1555 Us 54 West, Vandalia, MO, 63382",1555 Us 54 West,Vandalia,MO,63382,Audrain,573-594-2136
8655,A & B Prescription Shop,39.173314,-91.880928,"201 E Monroe St, Mexico, MO, 65265",201 E Monroe St,Mexico,MO,65265,Audrain,573-581-1350
8815,Splendora Pharmacy,29.776669,-96.15669,"707 Meyer Street, Sealy, TX, 77474",707 Meyer Street,Sealy,TX,77474,Austin,979-256-3045
18486,Adams Drugs-Prattville,32.4648538,-86.4501399,"103 S Memorial Dr, Prattville, AL, 36066",103 S Memorial Dr,Prattville,AL,36066,Autauga,334-358-5353
8337,Lacour's Phramacy,30.9817689,-91.8112552,"16237 Hwy 1, Simmesport, LA, 71369",16237 Hwy 1,Simmesport,LA,71369,Avoyelles Parish,318-941-2423
16958,Carver Drug Co. & Gifts,31.5403525,-82.4704042,"135 Ga Hwy 32 Bypass, Alma, GA, 31510",135 Ga Hwy 32 Bypass,Alma,GA,31510,Bacon,912-632-7455
7508,Macclenny Pharmacy Company,30.266351,-82.124047,"1254 S 6th Street, Macclenny, FL, 32063",1254 S 6th Street,Macclenny,FL,32063,Baker,904-259-1116
20510,Baker Pharmacy,30.2801447,-82.1328142,"698 W Macclenny Ave 682, Macclenny, FL, 32063",698 W Macclenny Ave 682,Macclenny,FL,32063,Baker,904-397-0565
4679,Fairhope Health Mart Pharmacy,30.5228426,-87.9031283,"398 Fairhope Ave, Fairhope, AL, 36533",398 Fairhope Ave,Fairhope,AL,36533,Baldwin,251-928-8822
4327,Loxley Discount Health Mart Pharmacy,30.6220183,-87.7510552,"2140 E Relham Drive, Loxley, AL, 36551",2140 E Relham Drive,Loxley,AL,36551,Baldwin,251-964-5332
2856,Island Drug Health Mart Pharmacy,30.2960504,-87.6838476,"3645 Gulf Shores Pkwy 107, Gulf Shores, AL, 36542",3645 Gulf Shores Pkwy 107,Gulf Shores,AL,36542,Baldwin,251-967-1100
16293,"Lee Drug Store, Inc",30.5517039,-87.7076222,"18530 Florida St, Robertsdale, AL, 36567",18530 Florida St,Robertsdale,AL,36567,Baldwin,251-947-7378
4757,Elberta Health Mart Pharmacy,30.4143646,-87.5977615,"24980 State Street, Elberta, AL, 36530",24980 State Street,Elberta,AL,36530,Baldwin,251-986-8115
6401,Lutherville Pharmacy,39.4296934,-76.6216696,"1776 York Rd, Lutherville Timonium, MD, 21093",1776 York Rd,Lutherville Timonium,MD,21093,Baltimore,410-252-5247
5029,Choice Health Mart Pharmacy,39.3968522,-76.7482697,"9151 Reisterstown Rd, Owings Mills, MD, 21117",9151 Reisterstown Rd,Owings Mills,MD,21117,Baltimore,410-363-8222
20615,Padonia Village Phcy,39.4555633,-76.6306044,"17 E Padonia Rd, Lutherville Timonium, MD, 21093",17 E Padonia Rd,Lutherville Timonium,MD,21093,Baltimore,443-330-5987
5901,Naturecare Pharmacy,39.468816,-76.830448,"40 Main St, Reisterstown, MD, 21136",40 Main St,Reisterstown,MD,21136,Baltimore,800-555-5555
3257,Naturecare Pharmacy,39.2849978,-76.7600959,"6483 Baltimore Ntl Pike, Catonsville, MD, 21228",6483 Baltimore Ntl Pike,Catonsville,MD,21228,Baltimore,800-555-5555
4874,Towson Health Mart Pharmacy,39.4116364,-76.6145543,"32 West Road Suite 100, Towson, MD, 21204",32 West Road Suite 100,Towson,MD,21204,Baltimore,410-823-1818
7367,Fuller Pharmacy,39.35011,-76.48655,"6918 Ridge Road, Rosedale, MD, 21237",6918 Ridge Road,Rosedale,MD,21237,Baltimore,410-574-1440
3474,Professional Pharmacy,39.3474697,-76.4734827,"9106 Philadelphia Rd 100, Rosedale, MD, 21237",9106 Philadelphia Rd 100,Rosedale,MD,21237,Baltimore,410-687-8113
18358,Choice Pharmacy 2,39.4065268,-76.7828633,"10309 Grand Central Ave, Owings Mills, MD, 21117",10309 Grand Central Ave,Owings Mills,MD,21117,Baltimore,800-555-5555
9680,Austin Pharmacy,39.481651,-76.6439609,"10757 York Road, Cockeysville, MD, 21030",10757 York Road,Cockeysville,MD,21030,Baltimore,410-773-0300
7184,Freedom Drugs Health Mart,39.2351555,-76.4418538,"7568 North Point Road, Sparrows Point, MD, 21219",7568 North Point Road,Sparrows Point,MD,21219,Baltimore,410-477-5131
19857,St Joseph Med Ctr Phcy,39.3883728,-76.6111518,"7505 Osler Dr Ste 102, Towson, MD, 21204",7505 Osler Dr Ste 102,Towson,MD,21204,Baltimore,800-555-5555
5416,Hereford Pharmacy,39.591778,-76.669934,"216 Mt Carmel Road, Parkton, MD, 21120",216 Mt Carmel Road,Parkton,MD,21120,Baltimore,410-329-6209
6505,Dulaney Valley Health Mart Pharmacy,39.4021713,-76.6021808,"716 Dulaney Valley Rd (In Dulaney Valley Plaza), Towson, MD, 21204",716 Dulaney Valley Rd (In Dulaney Valley Plaza),Towson,MD,21204,Baltimore,410-296-4900
2548,Extracare Health Mart Pharmacy,39.3005213,-76.6198311,"801 Park Avenue, Baltimore, MD, 21201",801 Park Avenue,Baltimore,MD,21201,Baltimore city,410-332-4666
9619,Lifeline Baltimore Pharmacy,39.3601113,-76.7069353,"6821 Reisterstown Rd Ste, Baltimore, MD, 21215",6821 Reisterstown Rd Ste,Baltimore,MD,21215,Baltimore city,410-764-6500
3246,Mt. Vernon Health Mart Pharmacy,39.2999745,-76.6175203,"900 Cathedral Street, Baltimore, MD, 21201",900 Cathedral Street,Baltimore,MD,21201,Baltimore city,410-539-8030
8702,Park Avenue Pharmacy,39.3085355,-76.6256716,"1535 Park Avenue, Baltimore, MD, 21217",1535 Park Avenue,Baltimore,MD,21217,Baltimore city,410-225-0800
16642,Voshell's Pharmacy,39.2716627,-76.6764757,"3455 Wilkens Ave, Baltimore, MD, 21229",3455 Wilkens Ave,Baltimore,MD,21229,Baltimore city,410-644-8400
20002,South Baltimore Pharmacy,39.249548,-76.622652,"631 Cherry Hill Road, Brooklyn, MD, 21225",631 Cherry Hill Road,Brooklyn,MD,21225,Baltimore city,410-355-8500
8511,Charlesmead Pharmacy,39.371272,-76.618555,"6242 Bellona Ave, Baltimore, MD, 21212",6242 Bellona Ave,Baltimore,MD,21212,Baltimore city,410-435-0210
2876,James Pharmacy,39.2765688,-76.612032,"1119 Light Street, Baltimore, MD, 21230",1119 Light Street,Baltimore,MD,21230,Baltimore city,410-752-5810
20485,The Pharmacy @ Belvedere Square,39.3644399,-76.6087601,"524 E Belvedere Ave, Baltimore, MD, 21212",524 E Belvedere Ave,Baltimore,MD,21212,Baltimore city,443-438-7168
7489,Hiers Drug,33.297712,-81.038628,"12253 Heritage Hwy, Bamberg, SC, 29003",12253 Heritage Hwy,Bamberg,SC,29003,Bamberg,803-245-4334
8627,Bandera Drug Llc,29.7289542,-99.075983,"1100 Mulberry Street, Bandera, TX, 78003",1100 Mulberry Street,Bandera,TX,78003,Bandera,830-796-3111
21930,Baldwin Pharmacy,34.4984441,-83.5317354,"1667 Willingham Ave, Baldwin, GA, 30511",1667 Willingham Ave,Baldwin,GA,30511,Banks,706-778-7174
17641,Homer Drugs,34.3552649,-83.4773612,"1228 Historic Homer Hwy, Homer, GA, 30547",1228 Historic Homer Hwy,Homer,GA,30547,Banks,706-677-3223
4068,L'anse Health Mart Pharmacy,46.6730059,-88.4331338,"18341 Us Highway 41, Lanse, MI, 49946",18341 Us Highway 41,Lanse,MI,49946,Baraga,906-524-6202
4419,Buy Rite Drugs #14,31.8935022,-85.1441757,"146 E Broad St, Eufaula, AL, 36027",146 E Broad St,Eufaula,AL,36027,Barbour,229-435-4571
17073,Buy Rite Drugs #13,31.8862362,-85.1458281,"542 S Eufaula, Eufaula, AL, 36027",542 S Eufaula,Eufaula,AL,36027,Barbour,334-687-0021
3070,Mace's Health Mart Pharmacy,39.146456,-80.035534,"440 South Main St, Philippi, WV, 26416",440 South Main St,Philippi,WV,26416,Barbour,304-457-4233
6049,Maces Pharmacy,39.0224404,-79.9372244,"204 South Crim Avenue, Belington, WV, 26250",204 South Crim Avenue,Belington,WV,26250,Barbour,304-823-1001
2282,Central Ave Health Mart Pharmacy,46.9255008,-98.0031261,"323 No Central Ave 101, Valley City, ND, 58072",323 No Central Ave 101,Valley City,ND,58072,Barnes,701-845-5280
7576,Whole Health Pharmacy,41.65224,-70.317099,"596 West Main St, Hyannis, MA, 02601",596 West Main St,Hyannis,MA,2601,Barnstable,508-778-5928
8624,Morgan's Drugs,33.401496,-81.421951,"12935 Main Street, Williston, SC, 29853",12935 Main Street,Williston,SC,29853,Barnwell,803-266-3356
2875,James Health Mart Pharmacy,45.393588,-92.142696,"215 Maple Street, Turtle Lake, WI, 54889",215 Maple Street,Turtle Lake,WI,54889,Barron,715-986-2225
18344,Maple Valley Pharmacy,42.6045445,-85.0938477,"219 Main St, Nashville, MI, 49073",219 Main St,Nashville,MI,49073,Barry,517-852-0845
21938,Hope Wellness Pharmacy,39.3038674,-85.7699687,"645 Harrison St, Hope, IN, 47246",645 Harrison St,Hope,IN,47246,Bartholomew,812-546-2502
5391,Cardinal Health Pharmacy,38.5215452,-98.7781958,"821 N Main, Hoisington, KS, 67544",821 N Main,Hoisington,KS,67544,Barton,620-653-2200
19358,The Red Haus Pharmacy,38.354409,-98.58267,"19 N Humbolt Ave, Ellinwood, KS, 67526",19 N Humbolt Ave,Ellinwood,KS,67526,Barton,620-242-3511
5300,Ford's Health Mart Pharmacy,34.3765014,-84.9304529,"7441 Adairsville Hwy, Adairsville, GA, 30103",7441 Adairsville Hwy,Adairsville,GA,30103,Bartow,770-773-1800
18675,Family Discount Drugs,38.1439398,-83.7636498,"60 Slate Avenue Pob 1119, Owingsville, KY, 40360",60 Slate Avenue Pob 1119,Owingsville,KY,40360,Bath,606-674-6979
6718,Bath Hometown Health Mart Pharmacy,38.131293,-83.758172,"19 Miller Dr, Owingsville, KY, 40360",19 Miller Dr,Owingsville,KY,40360,Bath,606-674-2423
7279,Coastal Care Pharmacy,30.2033651,-85.8239056,"11939 Panama City Bch Pkwy, Panama City Beach, FL, 32407",11939 Panama City Bch Pkwy,Panama City Beach,FL,32407,Bay,800-555-5555
22191,Rx Express Pharmacy,30.1901327,-85.7015428,"3104 W 23rd St, Panama City, FL, 32405",3104 W 23rd St,Panama City,FL,32405,Bay,850-215-7455
5262,Gulf Coast Health Mart Pharmacy,30.1901242,-85.6662427,"340 West 23rd Street D2, Panama City, FL, 32405",340 West 23rd Street D2,Panama City,FL,32405,Bay,850-615-1000
8745,Coopers Drigs,30.1569805,-85.6499612,"700 E Business Highway 98, Panama City, FL, 32401",700 E Business Highway 98,Panama City,FL,32401,Bay,850-785-0251
7065,City Drugs Health Mart,30.1216892,-85.5931708,"3127 E Hwy 98, Panama City, FL, 32401",3127 E Hwy 98,Panama City,FL,32401,Bay,850-615-5000
17827,Jay Care Pharmacy,30.1900597,-85.6806449,"1212 W 23rd Street, Panama City, FL, 32405",1212 W 23rd Street,Panama City,FL,32405,Bay,850-640-4810
19871,Callaway Gulf Coast Pharmacy,30.155769,-85.590609,"420 N Tyndall Pkwy, Panama City, FL, 32404",420 N Tyndall Pkwy,Panama City,FL,32404,Bay,850-615-3000
3570,Sabourin's Health Mart Pharmacy,43.6969312,-83.9673772,"1461 South Huron Road, Kawkawlin, MI, 48631",1461 South Huron Road,Kawkawlin,MI,48631,Bay,989-667-4877
2117,Bear Lake Drug,42.3176722,-111.3079609,"836 Washington, Montpelier, ID, 83254",836 Washington,Montpelier,ID,83254,Bear Lake,208-847-1421
9588,Bear Lake Community Health Center -Montpelier,42.3166247,-111.2977973,"152 S 4th St, Montpelier, ID, 83254",152 S 4th St,Montpelier,ID,83254,Bear Lake,208-904-3600
9150,Beaufort Pharmacy & Compounding,32.4164664,-80.6889573,"968 Ribaut Rd Ste 1, Beaufort, SC, 29902",968 Ribaut Rd Ste 1,Beaufort,SC,29902,Beaufort,843-379-3278
6242,Ideal Health Mart Pharmacy,30.8545875,-93.288597,"610 N Pine, Deridder, LA, 70634",610 N Pine,Deridder,LA,70634,Beauregard Parish,337-463-7210
2199,Brighton Health Mart Pharmacy,40.7383826,-80.3154722,"525 5th Avenue, New Brighton, PA, 15066",525 5th Avenue,New Brighton,PA,15066,Beaver,724-847-7979
2119,Beaver Health Mart Pharmacy,40.6956455,-80.3034484,"533 3rd Street, Beaver, PA, 15009",533 3rd Street,Beaver,PA,15009,Beaver,724-774-0919
6357,Beaver Falls Health Mart Pharmacy,40.754488,-80.318968,"1314 7th Avenue, Beaver Falls, PA, 15010",1314 7th Avenue,Beaver Falls,PA,15010,Beaver,724-384-0766
7731,Rochester Health Mart Pharmacy,40.7023906,-80.2769267,"176 Virginia Avenue, Rochester, PA, 15074",176 Virginia Avenue,Rochester,PA,15074,Beaver,724-987-6085
7900,Grandview Pharmacy,35.4116952,-99.4193365,"1220 W 3rd St Pob 370, Elk City, OK, 73644",1220 W 3rd St Pob 370,Elk City,OK,73644,Beckham,580-225-5550
6211,Potomac Valley,39.820157,-78.7199156,"138 Washington Street, Hyndman, PA, 15545",138 Washington Street,Hyndman,PA,15545,Bedford,814-842-3201
22296,Forest Pharmacy,37.3679657,-79.2598373,"1415 Crossings Centre Dr, Forest, VA, 24551",1415 Crossings Centre Dr,Forest,VA,24551,Bedford,434-534-3350
17860,Bell Rx Discount Pharmacy,31.1094349,-97.8000466,"2710 Sclear Creek Rd Ste, Killeen, TX, 76549",2710 Sclear Creek Rd Ste,Killeen,TX,76549,Bell,254-781-2405
8530,Martin Drug And Mercantile,43.1751383,-101.7367999,"304 Main St, Martin, SD, 57551",304 Main St,Martin,SD,57551,Bennett,605-685-6200
4800,Cornerstone Pharmacy Of Bella Vista,36.4375129,-94.2325735,"1 Mercy Way Ste 50, Bella Vista, AR, 72714",1 Mercy Way Ste 50,Bella Vista,AR,72714,Benton,479-876-6200
5437,Lowell Health Mart Pharmacy,36.2530481,-94.135304,"114 Harrison Ave, Lowell, AR, 72745",114 Harrison Ave,Lowell,AR,72745,Benton,479-770-0111
20147,Allcare Pharmacy #23b,36.3320391,-94.1350951,"216 South 13th St Ste B, Rogers, AR, 72758",216 South 13th St Ste B,Rogers,AR,72758,Benton,479-621-0400
19677,Livewell Pharmacy,36.3365653,-94.2508294,"3500 Sw Regional Airport Blvd 2, Bentonville, AR, 72713",3500 Sw Regional Airport Blvd 2,Bentonville,AR,72713,Benton,800-555-5555
19932,Lagrange Pharmacy Urbana,42.22682,-91.8838084,"1002 W Main St, Urbana, IA, 52345",1002 W Main St,Urbana,IA,52345,Benton,319-472-4274
2396,Cornerstone Apothecary Health Mart Pharmacy,42.0083528,-92.0911653,"122 Main St, Van Horne, IA, 52346",122 Main St,Van Horne,IA,52346,Benton,319-228-8100
2960,La Grange Health Mart Pharmacy,42.1679973,-92.0249693,"111 West 4th Street, Vinton, IA, 52349",111 West 4th Street,Vinton,IA,52349,Benton,319-472-4274
6155,Cornerstone Apothecary,41.896,-92.276736,"731 12th St, Belle Plaine, IA, 52208",731 12th St,Belle Plaine,IA,52208,Benton,319-444-2290
9562,Corvallis Pharmacy,44.6020658,-123.2548035,"3680 Nw Samaritan Dr, Corvallis, OR, 97330",3680 Nw Samaritan Dr,Corvallis,OR,97330,Benton,541-754-1284
6136,Philomath Family,44.5396816,-123.362461,"1640 Main Street, Philomath, OR, 97370",1640 Main Street,Philomath,OR,97370,Benton,541-929-2880
21981,Benton Southgate Pharmacy,46.2168694,-119.7860556,"471 Wine Country Rd, Prosser, WA, 99350",471 Wine Country Rd,Prosser,WA,99350,Benton,509-750-8319
7017,Logar Health Mart Pharmacy,46.2638047,-119.4873235,"516 9th St Ste B, Benton City, WA, 99320",516 9th St Ste B,Benton City,WA,99320,Benton,509-588-8600
18223,Corner Drug Of Frankfort,44.6328682,-86.239493,"401 Main St, Frankfort, MI, 49635",401 Main St,Frankfort,MI,49635,Benzie,231-352-4041
9400,Sol Pharmacy,40.8512879,-73.995125,"450b Broad Ave, Palisades Park, NJ, 07650",450b Broad Ave,Palisades Park,NJ,7650,Bergen,201-947-8877
20420,Park Ridge Pharmacy,41.03369,-74.039359,"40 Park Ave St 5, Park Ridge, NJ, 07656",40 Park Ave St 5,Park Ridge,NJ,7656,Bergen,201-554-2200
7833,Hackensack Pharmacy,40.8992822,-74.0561561,"441 Passaic Street, Hackensack, NJ, 07601",441 Passaic Street,Hackensack,NJ,7601,Bergen,201-488-1230
9484,Star Pharmacy,40.845464,-73.9783999,"1400 Anderson Ave Unit 7, Fort Lee, NJ, 07024",1400 Anderson Ave Unit 7,Fort Lee,NJ,7024,Bergen,201-224-8877
9268,Us Pharmacy Lab,41.0084046,-73.9476006,"220 Livingston St, Northvale, NJ, 07647",220 Livingston St,Northvale,NJ,7647,Bergen,201-322-9090
8921,Baron II Drug & Surgical,40.8407872,-74.0725318,"91 Moonachie Road, Moonachie, NJ, 07074",91 Moonachie Road,Moonachie,NJ,7074,Bergen,201-641-1110
18056,Cafe Rx,40.9378481,-73.9621935,"2 Piermont Rd Unit 2, Cresskill, NJ, 07626",2 Piermont Rd Unit 2,Cresskill,NJ,7626,Bergen,201-627-8800
17616,Invictus Pharmacy,40.8944024,-74.0762298,"60 Essex Street, Rochelle Park, NJ, 07662",60 Essex Street,Rochelle Park,NJ,7662,Bergen,201-880-7000
22256,Rutherford Pharmacy,40.8278706,-74.1035558,"62 Park Ave, Rutherford, NJ, 07070",62 Park Ave,Rutherford,NJ,7070,Bergen,201-806-6000
9474,Reed's Pharmacy #2,39.553341,-77.9948531,"71 Cowardly Lion Dr Ste A, Hedgesville, WV, 25427",71 Cowardly Lion Dr Ste A,Hedgesville,WV,25427,Berkeley,304-754-5800
9476,Reed's Pharmacy #4,39.536772,-77.908955,"5078 Williamsport Pike St, Martinsburg, WV, 25404",5078 Williamsport Pike St,Martinsburg,WV,25404,Berkeley,304-267-6655
9477,Moore's Pharmacy,39.4784641,-77.9585187,"1311 Edwin Miller Blvd, Martinsburg, WV, 25404",1311 Edwin Miller Blvd,Martinsburg,WV,25404,Berkeley,304-264-0300
22208,Reading Community Phcy,40.3349476,-75.9266602,"526 Penn St, Reading, PA, 19602",526 Penn St,Reading,PA,19602,Berks,610-750-6723
8800,Medicine Chest Pharmacy,35.122946,-106.654646,"1123 Candelaria Rd Nw, Albuquerque, NM, 87107",1123 Candelaria Rd Nw,Albuquerque,NM,87107,Bernalillo,505-344-2335
18656,Johns Pharmacy,35.0730152,-106.5457423,"9134 Central Ave Se, Albuquerque, NM, 87123",9134 Central Ave Se,Albuquerque,NM,87123,Bernalillo,505-299-6169
8836,Victor's Regent Pharmacy,35.051918,-106.678516,"1643 Isleta Blvd Sw, Albuquerque, NM, 87105",1643 Isleta Blvd Sw,Albuquerque,NM,87105,Bernalillo,505-877-1620
8837,Duran Central Pharmacy,35.0924927,-106.6672006,"1815 Central Ave Nw, Albuquerque, NM, 87104",1815 Central Ave Nw,Albuquerque,NM,87104,Bernalillo,505-247-4141
16453,Colerain Primary Care Phy,36.201352,-76.769137,"109 W River St, Colerain, NC, 27924",109 W River St,Colerain,NC,27924,Bertie,252-356-2404
3294,Oakdell Pharmacy,29.5008511,-98.5765063,"7220 Louis Pasteur 176, San Antonio, TX, 78229",7220 Louis Pasteur 176,San Antonio,TX,78229,Bexar,210-614-6200
9358,Lifecare Garza Pharmacy,29.434732,-98.492256,"311 Camden St Ste 103, San Antonio, TX, 78215",311 Camden St Ste 103,San Antonio,TX,78215,Bexar,210-225-4561
7006,Carvajal Pharmacy At South San Health Mart,29.3516932,-98.5457987,"7500 Barlite 201, San Antonio, TX, 78224",7500 Barlite 201,San Antonio,TX,78224,Bexar,210-977-1860
19192,Nextdoor Pharmacy,29.584827,-98.5328374,"15614 Huebner Rd Ste 101, San Antonio, TX, 78248",15614 Huebner Rd Ste 101,San Antonio,TX,78248,Bexar,830-279-2933
18967,Renue Rx #5,29.3562167,-98.4878222,"810 Se Military Dr, San Antonio, TX, 78214",810 Se Military Dr,San Antonio,TX,78214,Bexar,210-923-4404
19471,Medical Center Pharmacy,29.3837865,-98.4573914,"1342 Fair Ave, San Antonio, TX, 78223",1342 Fair Ave,San Antonio,TX,78223,Bexar,409-225-2098
6112,Carvajal Pharmacy,29.3582453,-98.4808706,"3410 Roosevelt, San Antonio, TX, 78214",3410 Roosevelt,San Antonio,TX,78214,Bexar,210-977-1850
17878,Alamo Ranch Pharmacy & We,29.4871761,-98.7235552,"5514 Lone Star Pkwy, San Antonio, TX, 78253",5514 Lone Star Pkwy,San Antonio,TX,78253,Bexar,800-555-5555
20070,Dgd Pharmacy,29.5117333,-98.5869974,"5107 Medical Dr, San Antonio, TX, 78229",5107 Medical Dr,San Antonio,TX,78229,Bexar,210-614-8612
16012,Lifecare Pharmacy Of Austin,29.3851856,-98.5246867,"3110 Nogalitos 107, San Antonio, TX, 78225",3110 Nogalitos 107,San Antonio,TX,78225,Bexar,210-600-3282
20357,Vamps Rx,29.4248274,-98.4653205,"2004 E Houston St, San Antonio, TX, 78202",2004 E Houston St,San Antonio,TX,78202,Bexar,210-224-7676
6604,Rite-Away Health Mart Pharmacy #6,29.4183492,-98.5448828,"426 Castroville Rd - 5, San Antonio, TX, 78207",426 Castroville Rd - 5,San Antonio,TX,78207,Bexar,210-433-9991
9160,Carvajal Pharmacy Ingram Park,29.4721131,-98.6162531,"6157 Nw Loop 410, San Antonio, TX, 78238",6157 Nw Loop 410,San Antonio,TX,78238,Bexar,210-977-1852
17044,Goodsense Pharmacy,29.5144518,-98.5769521,"8042 Wurzbach Road 150, San Antonio, TX, 78229",8042 Wurzbach Road 150,San Antonio,TX,78229,Bexar,210-802-2640
6999,Carvajal Pharmacy At Crockett Park Health Mart,29.4451984,-98.4918727,"1715 Mccullough Ave, San Antonio, TX, 78212",1715 Mccullough Ave,San Antonio,TX,78212,Bexar,210-354-3600
5247,Rite-Away Health Mart Pharmacy #1,29.587318,-98.451355,"2235 Thousand Oaks 102, San Antonio, TX, 78232",2235 Thousand Oaks 102,San Antonio,TX,78232,Bexar,210-490-2733
3296,Oak Hills Pharmacy,29.508462,-98.5708779,"7711 Louis Pasteur Dr, San Antonio, TX, 78229",7711 Louis Pasteur Dr,San Antonio,TX,78229,Bexar,210-614-4101
20258,Trinity Specialty Phcy,29.4183043,-98.6349238,"7323 Marbach Rd Ste 105, San Antonio, TX, 78227",7323 Marbach Rd Ste 105,San Antonio,TX,78227,Bexar,
17843,Carvajal Pharmacy Dixon,29.373643,-98.4125113,"4212 E South Cross, San Antonio, TX, 78222",4212 E South Cross,San Antonio,TX,78222,Bexar,210-977-1852
18483,Alamo Specialty Pharmacy,29.5239051,-98.5987289,"8832 Huebner Rd, San Antonio, TX, 78240",8832 Huebner Rd,San Antonio,TX,78240,Bexar,210-314-6782
19140,Goodsense Pharmacy #2,29.5057283,-98.4309742,"3320 Oakwell Ct Ste 103, San Antonio, TX, 78218",3320 Oakwell Ct Ste 103,San Antonio,TX,78218,Bexar,210-802-4380
3974,White Cross Pharmacy,29.4409744,-98.4926072,"1303 Mccullough Ste 128, San Antonio, TX, 78212",1303 Mccullough Ste 128,San Antonio,TX,78212,Bexar,210-227-7207
9356,Lifecareempire,29.401341,-98.5309709,"2207 S Zarzamora, San Antonio, TX, 78207",2207 S Zarzamora,San Antonio,TX,78207,Bexar,210-223-3863
5782,Rite-Away Health Mart Pharmacy #2,29.3562179,-98.5401171,"2716 Sw Military Dr 102, San Antonio, TX, 78224",2716 Sw Military Dr 102,San Antonio,TX,78224,Bexar,210-927-3742
19694,Hill's Drug Store # 1,29.3973372,-98.5317219,"705 W Kirk Place, San Antonio, TX, 78226",705 W Kirk Place,San Antonio,TX,78226,Bexar,210-225-7284
18966,Renue Rx #6,29.4897758,-98.6121593,"6428 Bandera Rd, San Antonio, TX, 78238",6428 Bandera Rd,San Antonio,TX,78238,Bexar,210-256-8629
2033,Oakdell Pharmacy Alamo Heights,29.612567,-98.492757,"423 Treeline Park, San Antonio, TX, 78229",423 Treeline Park,San Antonio,TX,78229,Bexar,210-822-6330
17390,South San Pharmacy,29.357123,-98.5066667,"919 Sw Military 105, San Antonio, TX, 78221",919 Sw Military 105,San Antonio,TX,78221,Bexar,210-922-1816
7000,Carvajal Pharmacy At Wesley Health Mart,29.370486,-98.5286148,"1406 Fitch, San Antonio, TX, 78211",1406 Fitch,San Antonio,TX,78211,Bexar,210-918-8746
3999,Woodstock Drug Health Mart Pharmacy,33.2141294,-87.163676,"28891 Hwy 5, Woodstock, AL, 35188",28891 Hwy 5,Woodstock,AL,35188,Bibb,205-938-9221
2866,J & Drugs Health Mart Pharmacy,32.9431236,-87.1129539,"1130 Walnut St, Centreville, AL, 35042",1130 Walnut St,Centreville,AL,35042,Bibb,205-926-4821
22198,U Save It Phcy Macon 2,32.8409088,-83.6427193,"1425 Georgia Ave Ste 102, Macon, GA, 31201",1425 Georgia Ave Ste 102,Macon,GA,31201,Bibb,229-435-4571
5061,Orthogeorgia Health Mart Pharmacy,32.89512,-83.6913734,"3708 Northside Drive, Macon, GA, 31210",3708 Northside Drive,Macon,GA,31210,Bibb,478-750-2802
3606,Scott's Health Mart Pharmacy #1,32.8406515,-83.6628354,"635 Pio Nono Avenue, Macon, GA, 31204",635 Pio Nono Avenue,Macon,GA,31204,Bibb,478-845-3698
8662,U Save It Pharmacy #13 Macon,32.7988366,-83.6653729,"3576 Pio Nono Avenue, Macon, GA, 31206",3576 Pio Nono Avenue,Macon,GA,31206,Bibb,478-781-1565
19973,Freds/Arcadia,32.5580877,-92.9130832,"1311 Hazel St, Arcadia, LA, 71001",1311 Hazel St,Arcadia,LA,71001,Bienville Parish,318-263-3948
3054,Lovell Drug Health Mart Pharmacy,44.8372,-108.39,"164 E Main St, Lovell, WY, 82431",164 E Main St,Lovell,WY,82431,Big Horn,307-548-7231
20508,Brad's Corner Drug,42.521779,-92.4453115,"103 E 18th St, Cedar Falls, IA, 50613",103 E 18th St,Cedar Falls,IA,50613,Black Hawk,319-277-1829
7764,Herod Drug Store,36.0537971,-98.5903144,"212 W Main, Canton, OK, 73724",212 W Main,Canton,OK,73724,Blaine,580-886-3444
7706,Swann Pharmacy,35.843835,-98.417141,"407 W Main, Watonga, OK, 73772",407 W Main,Watonga,OK,73772,Blaine,580-623-4505
7705,City Pharmacy,35.844714,-98.419506,"101 N Clarence Nash Blvd, Watonga, OK, 73772",101 N Clarence Nash Blvd,Watonga,OK,73772,Blaine,580-623-4545
5727,Altoona Pharmacy,40.5186809,-78.3947359,"620 Howard Ave Bldg G Suite 403, Altoona, PA, 16601",620 Howard Ave Bldg G Suite 403,Altoona,PA,16601,Blair,814-283-0602
6481,Johnson City,30.2705284,-98.3974928,"405 Highway 281 South, Johnson City, TX, 78636",405 Highway 281 South,Johnson City,TX,78636,Blanco,830-868-7185
18093,Stephens Pharmacy,35.6057418,-85.1894652,"3135 Main St, Pikeville, TN, 37367",3135 Main St,Pikeville,TN,37367,Bledsoe,423-447-2434
4316,Alaco Discount Pharmacy #4,33.9317654,-86.4943753,"27550 State Highway 75 Ste 107, Oneonta, AL, 35121",27550 State Highway 75 Ste 107,Oneonta,AL,35121,Blount,205-274-2194
3048,Locust Fork Pharmacy,33.904428,-86.620736,"29984 State Hwy 79 Ste 600, Locust Fork, AL, 35097",29984 State Hwy 79 Ste 600,Locust Fork,AL,35097,Blount,205-680-2222
2757,Hayden Health Mart Pharmacy,33.8821385,-86.7687984,"4086 State Hwy 160, Hayden, AL, 35079",4086 State Hwy 160,Hayden,AL,35079,Blount,205-590-1515
2336,Cleveland Discount Health Mart Pharmacy,33.9856658,-86.5872845,"36321 State Hwy 79 Ste 2, Cleveland, AL, 35049",36321 State Hwy 79 Ste 2,Cleveland,AL,35049,Blount,205-274-8000
11899,Blountsville Pharmacy,34.0841621,-86.5909403,"69005 Main Street, Blountsville, AL, 35031",69005 Main Street,Blountsville,AL,35031,Blount,800-555-5555
19055,Village Pharmacy,35.7898095,-83.9472795,"2541 East Broadway Ave, Maryville, TN, 37804",2541 East Broadway Ave,Maryville,TN,37804,Blount,865-983-9591
4728,Shelby Drug Health Mart Pharmacy,33.9509439,-90.7678781,"1211 Broadway Old Hwy 61s, Shelby, MS, 38774",1211 Broadway Old Hwy 61s,Shelby,MS,38774,Bolivar,662-398-7487
6873,Bon Homme Health Mart Pharmacy,42.9912329,-97.8670019,"410 W 16th Ave, Tyndall, SD, 57066",410 W 16th Ave,Tyndall,SD,57066,Bon Homme,605-589-4418
5819,Sam Alexander Health Mart Pharmacy,36.2307744,-93.1071576,"127 N Main Street, Harrison, AR, 72601",127 N Main Street,Harrison,AR,72601,Boone,870-741-6511
4555,Swanson Drug Health Mart Pharmacy,42.0390512,-94.0309192,"305 W Walnut St, Ogden, IA, 50212",305 W Walnut St,Ogden,IA,50212,Boone,515-275-2362
17832,Poplar Grove Snyders Pharmacy,42.3455925,-88.850828,"13521 Illinois Route 76, Poplar Grove, IL, 61065",13521 Illinois Route 76,Poplar Grove,IL,61065,Boone,815-765-1300
8542,Ruwe Family Pharmacy - Florence,39.003562,-84.631307,"7220 Burlington Pike, Florence, KY, 41042",7220 Burlington Pike,Florence,KY,41042,Boone,859-746-2800
2695,Good Life Health Mart Pharmacy,41.6926063,-98.0012029,"124 South 4th Street, Albion, NE, 68620",124 South 4th Street,Albion,NE,68620,Boone,402-395-3353
2036,Albrecht's Health Mart Pharmacy,31.7826718,-97.5760647,"506 W 5th Street, Clifton, TX, 76634",506 W 5th Street,Clifton,TX,76634,Bosque,254-675-8398
22009,Walker Bros Drug,32.9055851,-93.7003072,"200 E Palmetto Ave, Plain Dealing, LA, 71064",200 E Palmetto Ave,Plain Dealing,LA,71064,Bossier Parish,318-326-4759
9036,Bottineau Pharmacy,48.8271309,-100.4459308,"505 Main Street, Bottineau, ND, 58318",505 Main Street,Bottineau,ND,58318,Bottineau,701-228-2291
6912,Bottineau Clinic Health Mart Pharmacy,48.8292694,-100.4491351,"314 Ohmer Street, Bottineau, ND, 58318",314 Ohmer Street,Bottineau,ND,58318,Bottineau,701-228-2220
8398,The Apothecary-Wwardenburg Health Center,40.0053873,-105.2687633,"Wardenburg Health Center, Boulder, CO, 80309",Wardenburg Health Center,Boulder,CO,80309,Boulder,303-492-8553
2694,Good Day Health Mart Pharmacy Longmont,40.1905019,-105.1027784,"1749 Main St Unit D, Longmont, CO, 80501",1749 Main St Unit D,Longmont,CO,80501,Boulder,303-774-0709
17540,Chinook Healthcare Pharmacy,39.9892781,-105.094971,"275 Waneka Pkwy Ste 10, Lafayette, CO, 80026",275 Waneka Pkwy Ste 10,Lafayette,CO,80026,Boulder,720-458-4887
7553,Flatirons Family Pharmacy,40.1516832,-105.1031552,"603 Ken Pratt Blvd, Longmont, CO, 80501",603 Ken Pratt Blvd,Longmont,CO,80501,Boulder,303-827-3480
8652,De Kalb Pharmacy,33.5089012,-94.6168349,"120 W Front St, De Kalb, TX, 75559",120 W Front St,De Kalb,TX,75559,Bowie,903-667-0880
18145,Red River Phcy Svc,33.4731022,-94.0602729,"1327 College Drive, Texarkana, TX, 75503",1327 College Drive,Texarkana,TX,75503,Bowie,903-792-7435
21109,Nb Pharmacy,33.4601086,-94.4123928,"409 Ne Front St, New Boston, TX, 75570",409 Ne Front St,New Boston,TX,75570,Bowie,903-314-5944
22074,Dave's Pharmacy,42.0969911,-102.8702653,"223 Box Butte Avenue, Alliance, NE, 69301",223 Box Butte Avenue,Alliance,NE,69301,Box Butte,308-762-4811
20259,Daves Phcy Hemingford,42.3213818,-103.0734836,"508 Niobrara, Hemingford, NE, 69348",508 Niobrara,Hemingford,NE,69348,Box Butte,308-487-5212
3806,Tremonton Community Health Mart Pharmacy,41.7114808,-112.1651526,"44 East Main, Tremonton, UT, 84337",44 East Main,Tremonton,UT,84337,Box Elder,435-257-5249
8252,Gallahers Pharmacy,38.4561808,-82.6460611,"2914 Blackburn Ave, Ashland, KY, 41101",2914 Blackburn Ave,Ashland,KY,41101,Boyd,606-329-2122
18092,Mcmeans Pharmacy,38.4687876,-82.6243893,"2920 Carter Ave, Ashland, KY, 41101",2920 Carter Ave,Ashland,KY,41101,Boyd,606-325-8400
19339,CCC Management/Gillum Dru,38.4798659,-82.643751,"1237 Carter Ave, Ashland, KY, 41101",1237 Carter Ave,Ashland,KY,41101,Boyd,606-393-5588
8131,Healthy Way Pharmacy Cedar Knoll,38.4008575,-82.7100591,"1410 Eagle Dr, Ashland, KY, 41102",1410 Eagle Dr,Ashland,KY,41102,Boyd,606-928-1001
3073,Madison Street Pharmacy,29.9442562,-82.1125267,"395 West Madison Street, Starke, FL, 32091",395 West Madison Street,Starke,FL,32091,Bradford,904-964-7774
7214,Cooke's Pharmacy,35.1896866,-84.8650161,"3400 Keith Street, Cleveland, TN, 37312",3400 Keith Street,Cleveland,TN,37312,Bradley,423-472-6478
7215,Cooke's Pharmacy #2,35.130656,-84.859476,"2010 Broomfield Rd, Cleveland, TN, 37323",2010 Broomfield Rd,Cleveland,TN,37323,Bradley,423-599-7053
9742,Crawford's Pharmacy,35.1754898,-84.8689678,"2260 Chambliss Ave, Cleveland, TN, 37320",2260 Chambliss Ave,Cleveland,TN,37320,Bradley,423-479-8601
9743,Pharmacy Home Care,35.1751446,-84.8689145,"120 23rd St, Cleveland, TN, 37311",120 23rd St,Cleveland,TN,37311,Bradley,423-790-7336
19782,Phd Pharmacy,35.1621012,-84.8846811,"110 Keith St Sw Ste 1 & 2, Cleveland, TN, 37311",110 Keith St Sw Ste 1 & 2,Cleveland,TN,37311,Bradley,423-614-6650
19907,Caremor Coldwater,41.9383945,-84.9843341,"407 East Chicago St, Coldwater, MI, 49036",407 East Chicago St,Coldwater,MI,49036,Branch,517-924-1999
19792,Pham House Drug Sweeny,29.0389712,-95.69944,"200 N Main St, Sweeny, TX, 77480",200 N Main St,Sweeny,TX,77480,Brazoria,979-459-2220
20283,Pyramids Mail Order Phcy,29.5771511,-95.3888018,"10970 Shadow Creek 1102, Pearland, TX, 77584",10970 Shadow Creek 1102,Pearland,TX,77584,Brazoria,888-489-0038
21908,Script Rx,29.558646,-95.2992808,"5072 Broadway St, Pearland, TX, 77581",5072 Broadway St,Pearland,TX,77581,Brazoria,832-915-2448
17445,Pearland Unicare Phcy,29.577179,-95.388921,"2225 County Rd 90 Ste 107, Pearland, TX, 77584",2225 County Rd 90 Ste 107,Pearland,TX,77584,Brazoria,832-284-4933
19357,Village Foods & Pharmacy,30.6550855,-96.3424658,"3030 E 29th St Ste 100, Bryan, TX, 77802",3030 E 29th St Ste 100,Bryan,TX,77802,Brazos,800-555-5555
21568,Bcs Pharmacy,30.6551869,-96.3483371,"2601 Osler Blvd, Bryan, TX, 77802",2601 Osler Blvd,Bryan,TX,77802,Brazos,979-485-9124
6509,Jackson Apothecary,37.5577813,-83.3803091,"842 Highway 15 North, Jackson, KY, 41339",842 Highway 15 North,Jackson,KY,41339,Breathitt,606-666-7060
17410,Towne & Country Pharmacy,37.7618975,-86.4484889,"675 E Highway 60, Hardinsburg, KY, 40143",675 E Highway 60,Hardinsburg,KY,40143,Breckinridge,270-756-2151
17435,"Save-Rite Drugs, Inc",37.8711952,-86.2928004,"14020 E Highway 60, Irvington, KY, 40146",14020 E Highway 60,Irvington,KY,40146,Breckinridge,270-547-2855
7781,East Coast Pharmacy,28.6156889,-80.8112629,"504 Garden St, Titusville, FL, 32796",504 Garden St,Titusville,FL,32796,Brevard,321-747-0206
17575,Angel's Pharmacy,28.5018224,-80.7823579,"7455 Us-1 Ste A, Titusville, FL, 32780",7455 Us-1 Ste A,Titusville,FL,32780,Brevard,551-358-4242
6511,Lordoni Discount,28.2143023,-80.6740236,"6300 N Wickham Rd 126, Melbourne, FL, 32940",6300 N Wickham Rd 126,Melbourne,FL,32940,Brevard,321-610-3114
7420,Babcock Pharmacy And Surgicals,28.0394752,-80.5824389,"1515 Palm Bay 108, Melbourne, FL, 32901",1515 Palm Bay 108,Melbourne,FL,32901,Brevard,321-499-3999
6953,Wickham Health Mart Pharmacy,28.1232199,-80.6716135,"1060 North Wickham Rd, Melbourne, FL, 32935",1060 North Wickham Rd,Melbourne,FL,32935,Brevard,321-241-6433
21408,Empire Specialty Phcy,28.0966648,-80.6186776,"749 S Apollo Blvd, Melbourne, FL, 32901",749 S Apollo Blvd,Melbourne,FL,32901,Brevard,321-549-6926
17305,Melbourne Rx,28.1291171,-80.6585157,"2290 Eau Gallie Blvd 112, Melbourne, FL, 32935",2290 Eau Gallie Blvd 112,Melbourne,FL,32935,Brevard,321-428-4505
5395,City Drug Health Mart Pharmacy,30.3622527,-103.6620357,"202 East Ave E, Alpine, TX, 79830",202 East Ave E,Alpine,TX,79830,Brewster,432-837-2252
18264,Pharmahealth Pharmacy,41.667141,-70.9916735,"535 Faunce Corner Rd, North Dartmouth, MA, 02747",535 Faunce Corner Rd,North Dartmouth,MA,2747,Bristol,800-555-5555
9710,Kingsbridge Pharmacy,40.8789234,-73.9051386,"200 West 231st Street, Bronx, NY, 10463",200 West 231st Street,Bronx,NY,10463,Bronx,718-432-2240
8970,Rose Drug Store,40.8513977,-73.9022036,"262 E Burnside Ave, Bronx, NY, 10457",262 E Burnside Ave,Bronx,NY,10457,Bronx,718-294-1470
9470,Karnaby Drugs 2 Llc,40.8936387,-73.8586534,"662 E 233rd St, Bronx, NY, 10466",662 E 233rd St,Bronx,NY,10466,Bronx,347-346-5134
5573,Adee Pharmacy Inc,40.8696322,-73.8440902,"1427 E Gun Hill Rd, Bronx, NY, 10469",1427 E Gun Hill Rd,Bronx,NY,10469,Bronx,718-379-1954
9464,King Raj Pharmacy,40.8666178,-73.8960345,"58 East Kingsbridge Rd, Bronx, NY, 10468",58 East Kingsbridge Rd,Bronx,NY,10468,Bronx,718-584-8371
8147,Throggs Neck Pharmacy,40.8298708,-73.8252357,"3569 East Tremont Avenue, Bronx, NY, 10465",3569 East Tremont Avenue,Bronx,NY,10465,Bronx,718-823-6353
8763,Jj Pharmacy,40.8605155,-73.8944764,"332 East 188th St, Bronx, NY, 10458",332 East 188th St,Bronx,NY,10458,Bronx,718-367-2000
3428,Pilgrim Pharmacy,40.8469691,-73.8328619,"2941 Westchester Avenue, Bronx, NY, 10461",2941 Westchester Avenue,Bronx,NY,10461,Bronx,718-823-1085
22179,Legend Drugs 1 Llc,40.8811781,-73.8782984,"159 E Gunhill Rd, Bronx, NY, 10467",159 E Gunhill Rd,Bronx,NY,10467,Bronx,718-708-7427
18234,Drugbox Pharmacy,40.8692051,-73.8316335,"500-5 Baychester Ave, Bronx, NY, 10475",500-5 Baychester Ave,Bronx,NY,10475,Bronx,718-872-7662
17418,Life Star Pharmacy,40.8362278,-73.922721,"1215 Jerome Ave, Bronx, NY, 10452",1215 Jerome Ave,Bronx,NY,10452,Bronx,
6215,Lemed Health Mart Pharmacy,40.8087961,-73.9307007,"159 E Gunhill Road, Bronx, NY, 10467",159 E Gunhill Road,Bronx,NY,10467,Bronx,718-231-4040
7762,Elder Pharmacy Llc,40.8288154,-73.8788789,"1527 Westchester Ave, Bronx, NY, 10472",1527 Westchester Ave,Bronx,NY,10472,Bronx,718-842-2777
17201,Imperial Pharmacy,40.8800471,-73.9078032,"3050 Corlear Avenue, Bronx, NY, 10463",3050 Corlear Avenue,Bronx,NY,10463,Bronx,718-581-0019
17779,Isabel's Pharmacy Inc,40.87857,-73.8731346,"338 E Gun Hill Rd, Bronx, NY, 10467",338 E Gun Hill Rd,Bronx,NY,10467,Bronx,718-655-4005
9324,Wecare Rx Plus,40.8374,-73.846564,"2405 Westchester Ave, Bronx, NY, 10461",2405 Westchester Ave,Bronx,NY,10461,Bronx,718-684-5070
22022,Lifestyle Pharmacy,40.8556035,-73.8881001,"584a E 187th Street, Bronx, NY, 10458",584a E 187th Street,Bronx,NY,10458,Bronx,347-899-8499
4301,Morales Health Mart Pharmacy,40.8395741,-73.9148534,"151 East 170th Street, Bronx, NY, 10452",151 East 170th Street,Bronx,NY,10452,Bronx,718-293-5832
18273,Dj Drugs,40.8873707,-73.9075121,"3721 Riverdale Ave, Bronx, NY, 10463",3721 Riverdale Ave,Bronx,NY,10463,Bronx,718-549-6709
9468,Parkchester Pharmacy,40.840624,-73.855543,"1663 Metropolitan Ave, Bronx, NY, 10462",1663 Metropolitan Ave,Bronx,NY,10462,Bronx,347-398-9006
6749,Benjamin's Pharmacy & Surgical Health Mart,40.8655477,-73.8591821,"987-989 Allerton Ave, Bronx, NY, 10469",987-989 Allerton Ave,Bronx,NY,10469,Bronx,718-405-9111
19344,Hunts Pharmacy Inc,40.8152968,-73.9193797,"2799 3rd Ave, Bronx, NY, 10455",2799 3rd Ave,Bronx,NY,10455,Bronx,718-401-1249
16690,Marco Drugs,40.8433759,-73.8874395,"814 E Tremont Ave, Bronx, NY, 10460",814 E Tremont Ave,Bronx,NY,10460,Bronx,917-259-7376
5627,Leroy Health Mart Pharmacy,40.872534,-73.878517,"314 East 204th Street, Bronx, NY, 10467",314 East 204th Street,Bronx,NY,10467,Bronx,718-882-5614
7052,Security Drugs Health Mart,40.875966,-73.8500884,"3419 Boston Road, Bronx, NY, 10469",3419 Boston Road,Bronx,NY,10469,Bronx,718-654-6974
6987,Cedra Health Mart Pharmacy,40.8077643,-73.9295923,"3027 3rd Avenue, Bronx, NY, 10455",3027 3rd Avenue,Bronx,NY,10455,Bronx,917-473-7788
16537,Custom Rx,40.8148485,-73.8998499,"979 Leggett Ave, Bronx, NY, 10455",979 Leggett Ave,Bronx,NY,10455,Bronx,347-591-4470
9082,Kramer Pharmacy,40.8087657,-73.916365,"309 St Anns Ave, Bronx, NY, 10454",309 St Anns Ave,Bronx,NY,10454,Bronx,718-993-1488
7537,Central Pharmacy Group Inc,40.8629041,-73.9019713,"23 W Fordham Road, Bronx, NY, 10468",23 W Fordham Road,Bronx,NY,10468,Bronx,718-450-3555
5831,Leroy Health Mart Pharmacy,40.8694744,-73.8893633,"245 East 198th Street, Bronx, NY, 10458",245 East 198th Street,Bronx,NY,10458,Bronx,718-220-7600
21847,Shakespeare Phcy Llc,40.8384884,-73.9229598,"1252 Shakespeare Ave, Bronx, NY, 10452",1252 Shakespeare Ave,Bronx,NY,10452,Bronx,718-588-4100
17945,Torres Family Pharmacy Of Donna,27.215018,-98.145653,"1118 S Highway 281 Business Hwy, Falfurrias, TX, 78355",1118 S Highway 281 Business Hwy,Falfurrias,TX,78355,Brooks,956-567-2005
21415,Brown's Pharmacy,42.060634,-75.42695,"115 Front St, Deposit, NY, 13754",115 Front St,Deposit,NY,13754,Broome,607-467-2294
4451,Corner Drug Health Mart Pharmacy,42.0952862,-76.0655778,"101 West Main Street, Endicott, NY, 13760",101 West Main Street,Endicott,NY,13760,Broome,607-785-0431
6571,Pill Box West Health Mart Pharmacy,26.0083638,-80.3803487,"17503a Pines Blvd, Hollywood, FL, 33029",17503a Pines Blvd,Hollywood,FL,33029,Broward,954-443-7455
8895,Medix Pharmacy,26.1631637,-80.216712,"4850 W Oakland Park Blvd, Fort Lauderdale, FL, 33313",4850 W Oakland Park Blvd,Fort Lauderdale,FL,33313,Broward,954-530-4793
7372,Family Physicians Rx,26.066154,-80.229213,"6191 Orange Dr Ste 6177-N, Fort Lauderdale, FL, 33314",6191 Orange Dr Ste 6177-N,Fort Lauderdale,FL,33314,Broward,954-321-8029
7270,Trust Pharmacy,26.0084258,-80.2762852,"9833 Pines Blvd, Hollywood, FL, 33024",9833 Pines Blvd,Hollywood,FL,33024,Broward,954-436-2359
2227,Budget Drugs Health Mart Pharmacy,25.9856233,-80.1246745,"2500 E Hallandale Bch Blv, Hallandale, FL, 33009",2500 E Hallandale Bch Blv,Hallandale,FL,33009,Broward,954-457-8011
16837,Bailey's Pharmacy,26.1840487,-80.1178772,"4500 N Federal Hwy Ste 6, Fort Lauderdale, FL, 33308",4500 N Federal Hwy Ste 6,Fort Lauderdale,FL,33308,Broward,772-925-9532
3446,Post Haste Health Mart Pharmacy,26.0334189,-80.1889506,"4401 Sheridan Street, Hollywood, FL, 33021",4401 Sheridan Street,Hollywood,FL,33021,Broward,954-989-6524
5621,Better Health Mart Pharmacy,26.1409262,-80.2017708,"1478 N State Rd 7, Fort Lauderdale, FL, 33313",1478 N State Rd 7,Fort Lauderdale,FL,33313,Broward,954-530-9318
9405,Pill Box Davie,26.091158,-80.250212,"7701 Nova Dr, Fort Lauderdale, FL, 33324",7701 Nova Dr,Fort Lauderdale,FL,33324,Broward,954-475-7455
5323,Fast Med,26.1529737,-80.2550294,"8237 Sunset Strip, Fort Lauderdale, FL, 33322",8237 Sunset Strip,Fort Lauderdale,FL,33322,Broward,954-741-6644
3430,Pill Box Health Mart Pharmacy,26.0942594,-80.3691635,"1932 Weston Road, Fort Lauderdale, FL, 33326",1932 Weston Road,Fort Lauderdale,FL,33326,Broward,954-389-7455
9436,Relyon Specialty Pharmacy,26.167683,-80.1108551,"2727 E Oakland Park Blvd, Fort Lauderdale, FL, 33306",2727 E Oakland Park Blvd,Fort Lauderdale,FL,33306,Broward,954-990-4317
8614,Pines Health Mart Pharmacy,26.0295572,-80.2475528,"2301 N University Dr, Hollywood, FL, 33024",2301 N University Dr,Hollywood,FL,33024,Broward,954-404-6610
16558,Ocean Chemist,26.1719531,-80.0992228,"3535 Galt Ocean Dr Ste 1n, Fort Lauderdale, FL, 33308",3535 Galt Ocean Dr Ste 1n,Fort Lauderdale,FL,33308,Broward,954-329-2690
7377,Patients Choice Pharmacy,26.061215,-80.253311,"4801 S Universitydrste105, Fort Lauderdale, FL, 33328",4801 S Universitydrste105,Fort Lauderdale,FL,33328,Broward,954-622-2222
7374,Intramed,26.1235367,-80.2402907,"6950 Cypress Rd 105, Fort Lauderdale, FL, 33317",6950 Cypress Rd 105,Fort Lauderdale,FL,33317,Broward,954-966-7578
4526,Quickscript Health Mart Pharmacy,26.158346,-80.1343875,"2408 Wilton Drive, Fort Lauderdale, FL, 33305",2408 Wilton Drive,Fort Lauderdale,FL,33305,Broward,954-514-7685
17774,Emerald Hills Pharmacy Or Emerald Hills Compoundin,26.047185,-80.169672,"3000 Stirling Rd Ste 120, Hollywood, FL, 33021",3000 Stirling Rd Ste 120,Hollywood,FL,33021,Broward,954-983-3336
18207,Simfarose Pharmacy,26.0066157,-80.2781997,"10016 Pines Blvd, Hollywood, FL, 33024",10016 Pines Blvd,Hollywood,FL,33024,Broward,954-435-7200
17648,Dania Rexall Pharmacy,26.1014583,-80.1365347,"16-18 South Federal Hwy, Dania, FL, 33004",16-18 South Federal Hwy,Dania,FL,33004,Broward,954-921-4661
9490,Neighorbood Drugs Of Davie,26.1030783,-80.2685739,"8844 W State Rd 84, Fort Lauderdale, FL, 33324",8844 W State Rd 84,Fort Lauderdale,FL,33324,Broward,954-424-3784
4702,Pill Box Health Mart Pharmacy,26.0229094,-80.3105477,"1700 Nw 122 Terr, Hollywood, FL, 33026",1700 Nw 122 Terr,Hollywood,FL,33026,Broward,954-432-7455
5420,Arthur's Original Pharmacy,26.1974329,-80.2516816,"5816 N University Dr, Fort Lauderdale, FL, 33321",5816 N University Dr,Fort Lauderdale,FL,33321,Broward,954-726-1911
7336,Radiant Care Pharmacy And Compounding,26.0677669,-80.2522446,"5779 S University Dr, Fort Lauderdale, FL, 33328",5779 S University Dr,Fort Lauderdale,FL,33328,Broward,954-530-4808
20386,Prescription Pad Pharmacy,26.1246372,-80.2416056,"333 Nw 70th Ave, Fort Lauderdale, FL, 33317",333 Nw 70th Ave,Fort Lauderdale,FL,33317,Broward,954-791-2000
18348,A Plus Pharmacy,26.1010322,-80.1304277,"1303 Se 17th St Suite D1, Fort Lauderdale, FL, 33316",1303 Se 17th St Suite D1,Fort Lauderdale,FL,33316,Broward,954-687-0774
2645,Garden Health Mart Pharmacy,26.1818525,-80.1466938,"4400 North Andrews Avenue, Fort Lauderdale, FL, 33309",4400 North Andrews Avenue,Fort Lauderdale,FL,33309,Broward,954-776-1521
19554,Core Health Pharmacy,26.0062153,-80.2975336,"11260 Pines Blvd, Hollywood, FL, 33026",11260 Pines Blvd,Hollywood,FL,33026,Broward,954-450-8873
2979,Las Olas Chemist,26.1194655,-80.1307419,"1211 East Las Olas Blvd, Fort Lauderdale, FL, 33301",1211 East Las Olas Blvd,Fort Lauderdale,FL,33301,Broward,954-462-4166
5803,A&a Family Pharmacy,26.0090908,-80.2459549,"7938 Pines Blvd, Hollywood, FL, 33024",7938 Pines Blvd,Hollywood,FL,33024,Broward,954-987-5230
19576,Zencare Pharmacy,25.9786686,-80.3025301,"12140 Miramar Pkwy, Hollywood, FL, 33025",12140 Miramar Pkwy,Hollywood,FL,33025,Broward,954-367-3579
9259,Prescriptrx Pharmacy,26.189117,-80.1254429,"1523 E Commercial Blvd, Fort Lauderdale, FL, 33334",1523 E Commercial Blvd,Fort Lauderdale,FL,33334,Broward,754-200-5913
20609,Morrison's Rx Inc,26.1672023,-80.2496001,"7535 W Oakland Park Blvd, Fort Lauderdale, FL, 33319",7535 W Oakland Park Blvd,Fort Lauderdale,FL,33319,Broward,954-578-5858
5004,Drugs 4 Health Mart Pharmacy,26.2146313,-80.1573409,"1247 S Powerline Road, Pompano Beach, FL, 33069",1247 S Powerline Road,Pompano Beach,FL,33069,Broward,954-972-1822
6763,Davids Health Mart Pharmacy,26.2756746,-80.1005732,"1637 Ne 36th St, Pompano Beach, FL, 33064",1637 Ne 36th St,Pompano Beach,FL,33064,Broward,954-942-0920
19459,Diabetic Solutions,26.2729752,-80.2636357,"10301 West Sample Rd, Coral Springs, FL, 33065",10301 West Sample Rd,Coral Springs,FL,33065,Broward,954-346-7759
2943,Kings Health Mart Pharmacy,26.2775031,-80.250327,"2814 N University, Coral Springs, FL, 33065",2814 N University,Coral Springs,FL,33065,Broward,954-575-7085
19648,Margate Pharmacy,26.2586874,-80.2014713,"2458 N State Rd 7, Pompano Beach, FL, 33063",2458 N State Rd 7,Pompano Beach,FL,33063,Broward,800-555-5555
8417,Tamarac Pharmacy,26.2180363,-80.2879228,"7120 N Nob Hill Rd, Fort Lauderdale, FL, 33321",7120 N Nob Hill Rd,Fort Lauderdale,FL,33321,Broward,954-586-4546
16986,Rx Marine Inc,26.218659,-80.251951,"7800 N University 103, Fort Lauderdale, FL, 33321",7800 N University 103,Fort Lauderdale,FL,33321,Broward,786-310-7099
9723,Kex Rx Pharmacy & Home Care,39.8528791,-95.5355181,"101 S Sixth, Hiawatha, KS, 66434",101 S Sixth,Hiawatha,KS,66434,Brown,785-742-2125
3777,Tice Health Mart Pharmacy,39.8530475,-95.5365943,"618 Oregon Street, Hiawatha, KS, 66434",618 Oregon Street,Hiawatha,KS,66434,Brown,785-742-2191
19546,Ainsworth Drug,42.5478728,-99.8628551,"255 N Main St, Ainsworth, NE, 69210",255 N Main St,Ainsworth,NE,69210,Brown,402-238-8551
7541,United Clinic Pharmacy,45.4632108,-98.4451548,"3015 3rd Ave Se Suite 110, Aberdeen, SD, 57401",3015 3rd Ave Se Suite 110,Aberdeen,SD,57401,Brown,605-225-4001
9518,Kessler's Pharmacy,45.4592613,-98.4784051,"621 6th Ave Se, Aberdeen, SD, 57401",621 6th Ave Se,Aberdeen,SD,57401,Brown,605-225-6673
7533,Dt Pharmacy,45.4642025,-98.4757979,"815 1st Ave Se Ste 202, Aberdeen, SD, 57401",815 1st Ave Se Ste 202,Aberdeen,SD,57401,Brown,605-725-4001
7540,State Street Pharmacy,45.4638147,-98.4785359,"105 So State St Ste 111, Aberdeen, SD, 57401",105 So State St Ste 111,Aberdeen,SD,57401,Brown,605-225-1945
7535,Plaza Pharmacy,45.4602506,-98.4574203,"2201 6th Ave Se Suite 23, Aberdeen, SD, 57401",2201 6th Ave Se Suite 23,Aberdeen,SD,57401,Brown,605-225-6344
4065,Jones Drug,45.4586567,-98.4756347,"816 6th Ave Se Ste 1, Aberdeen, SD, 57401",816 6th Ave Se Ste 1,Aberdeen,SD,57401,Brown,605-225-3010
7178,Lori's Health Mart Pharmacy,45.4570928,-98.1015716,"1205 North 1st Street, Groton, SD, 57445",1205 North 1st Street,Groton,SD,57445,Brown,605-397-2363
21987,Jacobs Family Pharmacy,31.6948123,-98.9666734,"2701 Austin Ave, Brownwood, TX, 76801",2701 Austin Ave,Brownwood,TX,76801,Brown,800-555-5555
6413,Live Oak,31.683896,-98.959342,"3707 Austin Ave, Brownwood, TX, 76801",3707 Austin Ave,Brownwood,TX,76801,Brown,325-643-2648
8490,Streus's Pharmacy Bay Natural,44.5165881,-88.0069513,"635 Main Street, Green Bay, WI, 54301",635 Main Street,Green Bay,WI,54301,Brown,920-437-4750
20464,The Medicine Store,33.9970522,-96.3909058,"311 N Washington Ave, Durant, OK, 74701",311 N Washington Ave,Durant,OK,74701,Bryan,580-924-3784
3133,Medical Center,34.0036528,-96.4078517,"1026 Radio Road, Durant, OK, 74701",1026 Radio Road,Durant,OK,74701,Bryan,580-924-7425
8672,Small Town Pharmacy,40.4441082,-75.3582357,"1 N West End Blvd, Quakertown, PA, 18951",1 N West End Blvd,Quakertown,PA,18951,Bucks,
3346,Oxford Valley Health Mart Pharmacy,40.1715288,-74.8523588,"403 S Oxford Valley Rd, Fairless Hills, PA, 19030",403 S Oxford Valley Rd,Fairless Hills,PA,19030,Bucks,215-269-7900
7409,Pennsbury Pharmacy,40.1709705,-74.8353015,"8545 New Falls Rd, Levittown, PA, 19054",8545 New Falls Rd,Levittown,PA,19054,Bucks,215-547-2378
4675,Whitman Health Mart Pharmacy,40.3359376,-75.048533,"4950 Old York Road, Holicong, PA, 18928",4950 Old York Road,Holicong,PA,18928,Bucks,215-794-8850
9295,Bvrmc Pharmacy,42.6430359,-95.2019399,"620 Nw Drive (Pod 2), Storm Lake, IA, 50588",620 Nw Drive (Pod 2),Storm Lake,IA,50588,Buena Vista,712-213-8065
5658,Svanda Health Mart Pharmacy,41.0258004,-98.9127324,"314 Grand Avenue, Ravenna, NE, 68869",314 Grand Avenue,Ravenna,NE,68869,Buffalo,308-452-3672
11610,Lambert's Family Pharmacy,40.7483733,-98.8448254,"814 1st St, Gibbon, NE, 68840",814 1st St,Gibbon,NE,68840,Buffalo,308-227-1784
19481,U-Save Pharmacy,40.7116557,-99.0836713,"3611 2nd Ave, Kearney, NE, 68847",3611 2nd Ave,Kearney,NE,68847,Buffalo,308-455-1555
2020,Abc Drug Health Mart Pharmacy,40.6974477,-99.0814312,"2123 Central Avenue, Kearney, NE, 68848",2123 Central Avenue,Kearney,NE,68848,Buffalo,308-237-2178
3138,Medical Center Health Mart Pharmacy,32.4419571,-81.7711091,"57 Granade Street, Statesboro, GA, 30458",57 Granade Street,Statesboro,GA,30458,Bulloch,912-764-5643
8820,Mccook's Pharmacy,32.3507509,-88.7433797,"23630 Us Hwy 80 E, Statesboro, GA, 30461",23630 Us Hwy 80 E,Statesboro,GA,30461,Bulloch,912-764-2223
3834,Union Springs Mart Pharamcy,32.1454471,-85.7160233,"204 Prairie Street N, Union Springs, AL, 36089",204 Prairie Street N,Union Springs,AL,36089,Bullock,334-738-2376
6202,Asheville Compounding Pharmacy,35.6248405,-82.5545552,"760 Merrimon Avenue, Asheville, NC, 28804",760 Merrimon Avenue,Asheville,NC,28804,Buncombe,828-255-8757
18925,Appalachian Specialty Pharmacy,35.5400058,-82.5305091,"932 Henderonville Rd 106, Asheville, NC, 28803",932 Henderonville Rd 106,Asheville,NC,28803,Buncombe,828-222-4269
18299,Asheville Mountain Phcy,35.5856584,-82.4735849,"1272 Tunnel Road Ste 20, Asheville, NC, 28805",1272 Tunnel Road Ste 20,Asheville,NC,28805,Buncombe,828-200-3788
8207,Carolina Mountain Pharmacy,35.4949684,-82.7364905,"7 Pisgah Hwy, Candler, NC, 28715",7 Pisgah Hwy,Candler,NC,28715,Buncombe,828-633-6700
9009,Sheffield Telepharmacy,41.3579981,-89.7373185,"134 S Main St, Sheffield, IL, 61361",134 S Main St,Sheffield,IL,61361,Bureau,815-454-8054
8508,Johnsons Pharmacy,41.3270328,-89.2892516,"203 E St Paul St, Spring Valley, IL, 61362",203 E St Paul St,Spring Valley,IL,61362,Bureau,815-664-5050
2899,Jones Drug Health Mart Pharmacy,35.749508,-81.686531,"208 Avery Avenue, Morganton, NC, 28655",208 Avery Avenue,Morganton,NC,28655,Burke,828-437-1565
2311,Churchill Health Mart Pharmacy,46.8264253,-100.8128541,"1190 W Turnpike Ave Ste2, Bismarck, ND, 58501",1190 W Turnpike Ave Ste2,Bismarck,ND,58501,Burleigh,701-224-0339
16366,Mayo Pharmacy,46.8079025,-100.7858466,"303 North 4th St, Bismarck, ND, 58501",303 North 4th St,Bismarck,ND,58501,Burleigh,701-223-2425
18199,Healthvia Pharmacy,39.9159054,-74.921578,"300 E Greentree Rd 8, Marlton, NJ, 08053",300 E Greentree Rd 8,Marlton,NJ,8053,Burlington,856-983-8700
8722,Delran Pharmacy,40.0115094,-74.9344323,"88 Hartford Rd Ste A, Riverside, NJ, 08075",88 Hartford Rd Ste A,Riverside,NJ,8075,Burlington,856-764-5400
17609,Rosvold Pharmacy,40.0072327,-74.9720665,"2702 Route 130 N, Riverton, NJ, 08077",2702 Route 130 N,Riverton,NJ,8077,Burlington,856-829-4877
17458,Medford Pharmacy,39.8717404,-74.8109128,"639 Stokes Rd 101, Medford, NJ, 08055",639 Stokes Rd 101,Medford,NJ,8055,Burlington,609-654-6884
4988,Atkins Express Health Mart Pharmacy,30.5973113,-98.2699159,"2607 Hwy 281, Marble Falls, TX, 78654",2607 Hwy 281,Marble Falls,TX,78654,Burnet,830-693-3784
2069,Atkins Health Mart Pharmacy,30.5714032,-98.2751816,"701 Third Street, Marble Falls, TX, 78654",701 Third Street,Marble Falls,TX,78654,Burnet,830-693-2972
2394,Corner Drug Health Mart Pharmacy,41.8357847,-96.4665232,"301 North Oakland Avenue, Oakland, NE, 68045",301 North Oakland Avenue,Oakland,NE,68045,Burt,402-685-5883
4848,Siech's Parkersburg Health Mart Pharmacy,42.5784339,-92.7872429,"226 3rd Street, Parkersburg, IA, 50665",226 3rd Street,Parkersburg,IA,50665,Butler,319-346-1970
19469,Kneibert Clinic Pharmacy,36.7589837,-90.3975732,"686 Lester Street, Poplar Bluff, MO, 63901",686 Lester Street,Poplar Bluff,MO,63901,Butler,573-778-7190
8509,Hughes Pharmacy,39.4040105,-84.5692606,"302 Main St 1, Hamilton, OH, 45013",302 Main St 1,Hamilton,OH,45013,Butler,513-868-1199
8394,Patient Care Pharmacy,39.3339515,-84.5241884,"5502 Dixie Hwy, Fairfield, OH, 45014",5502 Dixie Hwy,Fairfield,OH,45014,Butler,513-874-5868
8801,Community First Pharmacy,39.398074,-84.5621444,"210 S Second Steet, Hamilton, OH, 45011",210 S Second Steet,Hamilton,OH,45011,Butler,513-645-5447
18372,Community First Pharmacy,39.5057969,-84.409085,"1036 South Verity Pkwy, Middletown, OH, 45044",1036 South Verity Pkwy,Middletown,OH,45044,Butler,513-217-8900
8021,Saxonburg Drug,40.7500461,-79.8141003,"115 Pittsburgh St, Saxonburg, PA, 16056",115 Pittsburgh St,Saxonburg,PA,16056,Butler,724-352-3000
7447,Slippery Rock Pharmacy,41.0639512,-80.0566992,"116 New Castle St, Slippery Rock, PA, 16057",116 New Castle St,Slippery Rock,PA,16057,Butler,800-555-5555
5655,Petrolia Pharmacy,41.0212032,-79.7176318,"296 Church St, Petrolia, PA, 16050",296 Church St,Petrolia,PA,16050,Butler,724-756-4050
19653,Crystal Medical Center Ph,39.5043393,-121.5404793,"2809 Olive Highway Suite 160, Oroville, CA, 95966",2809 Olive Highway Suite 160,Oroville,CA,95966,Butte,530-533-1545
17482,Moyes Pharmacy - Jackson,33.2933724,-83.9661164,"227 S Mulberry St, Jackson, GA, 30233",227 S Mulberry St,Jackson,GA,30233,Butts,770-957-5561
8242,Medical Arts Pharmacy,38.4179928,-82.4415347,"949 Sixth Ave, Huntington, WV, 25701",949 Sixth Ave,Huntington,WV,25701,Cabell,304-529-7141
11896,Valley Health Pharmacy,38.4104191,-82.4288658,"1301 Hal Greer Blvd, Huntington, WV, 25701",1301 Hal Greer Blvd,Huntington,WV,25701,Cabell,304-399-3355
4792,Valley Health Mart Pharmacy,38.4108171,-82.3749882,"3377 Us Rt 60 East, Huntington, WV, 25705",3377 Us Rt 60 East,Huntington,WV,25705,Cabell,304-525-4112
19654,Cache Valley Chc Phcy S,41.7107446,-111.8304954,"517 W 100 N Suite 110, Providence, UT, 84332",517 W 100 N Suite 110,Providence,UT,84332,Cache,800-555-5555
8696,Cache Valley Community Health Center,41.7597017,-111.8239869,"1515 N 400 E Ste 104, Logan, UT, 84341",1515 N 400 E Ste 104,Logan,UT,84341,Cache,435-755-8424
3675,Spence's Health Pharmacy,41.7566727,-111.8210749,"550 East 1400 North, Logan, UT, 84341",550 East 1400 North,Logan,UT,84341,Cache,435-753-8500
2977,Larrys Health Pharmacy,41.825981,-111.8329235,"502 South Main, Smithfield, UT, 84335",502 South Main,Smithfield,UT,84335,Cache,435-563-6262
7946,Liberty Drug,35.106059,-98.6042557,"15 W Main St Pob 362, Carnegie, OK, 73015",15 W Main St Pob 362,Carnegie,OK,73015,Caddo,580-654-1111
7799,Apache Drug,34.8935279,-98.3653768,"118 E Evans, Apache, OK, 73006",118 E Evans,Apache,OK,73006,Caddo,580-588-3639
7996,Hinton Pharmacy,35.4745,-98.3554,"407 N Broadway/Pob 578, Hinton, OK, 73047",407 N Broadway/Pob 578,Hinton,OK,73047,Caddo,405-542-6222
7820,Clinic Pharmacy,35.0717545,-98.2262277,"1104 E Central Ste A, Anadarko, OK, 73005",1104 E Central Ste A,Anadarko,OK,73005,Caddo,405-247-3081
19434,Medic Specialty Pharmacy,32.4924294,-93.7456514,"745 Olive St Ste 201, Shreveport, LA, 71104",745 Olive St Ste 201,Shreveport,LA,71104,Caddo Parish,318-865-0234
21185,Sunrise Pharmacy Inc,38.1915856,-120.8291033,"51 Wellness Way Ste 110, Valley Springs, CA, 95252",51 Wellness Way Ste 110,Valley Springs,CA,95252,Calaveras,916-390-7617
20043,San Andreas Pharmacy,38.1959781,-120.6799602,"45 East Charles St Ste C, San Andreas, CA, 95249",45 East Charles St Ste C,San Andreas,CA,95249,Calaveras,209-754-7110
8361,Meadowmont Pharmacy,38.2388881,-120.3645195,"2182 Highway 4, Arnold, CA, 95223",2182 Highway 4,Arnold,CA,95223,Calaveras,209-795-1155
19201,Caraway Pharmacy,30.2480337,-93.2573018,"820 Mckinley St, Westlake, LA, 70669",820 Mckinley St,Westlake,LA,70669,Calcasieu Parish,337-433-4692
8323,Princeton Drug Co Inc,37.1086129,-87.8824125,"103 West Main Street, Princeton, KY, 42445",103 West Main Street,Princeton,KY,42445,Caldwell,270-365-5585
16568,Granite Drug Center,35.7977007,-81.4289573,"21 Falls Ave, Granite Falls, NC, 28630",21 Falls Ave,Granite Falls,NC,28630,Caldwell,828-396-2144
2615,Foot Hills Health Mart Pharmacy,35.9148576,-81.527134,"202a Harper Avenue, Lenoir, NC, 28645",202a Harper Avenue,Lenoir,NC,28645,Caldwell,828-754-6453
7097,Cajahs Mtn Discount Drug Health Mart,35.836714,-81.539118,"2006 Connelly Springs Rd, Lenoir, NC, 28645",2006 Connelly Springs Rd,Lenoir,NC,28645,Caldwell,828-726-8632
2488,Downey Drugs -Anniston,33.6207746,-85.9232667,"2427 Hwy 202, Anniston, AL, 36201",2427 Hwy 202,Anniston,AL,36201,Calhoun,256-237-9426
16840,Highland Health Systems,33.6548442,-85.8234268,"331 East 8th St, Anniston, AL, 36202",331 East 8th St,Anniston,AL,36202,Calhoun,256-236-3403
2408,Crow Drug Health Mart Pharmacy,33.813554,-85.7615541,"7 Public Square East, Jacksonville, AL, 36265",7 Public Square East,Jacksonville,AL,36265,Calhoun,256-435-7931
2487,Downey Drugs - Alexandria,33.7625759,-85.8909958,"658 Valley Cub Drive, Alexandria, AL, 36250",658 Valley Cub Drive,Alexandria,AL,36250,Calhoun,256-820-4540
4271,Alaco Discount Pharmacy,33.9342008,-85.5979264,"702 Hwy 278 Bypass E, Piedmont, AL, 36272",702 Hwy 278 Bypass E,Piedmont,AL,36272,Calhoun,256-447-7779
2684,Golden Health Mart Pharmacy,30.445041,-85.046306,"17324 Main Street North, Blountstown, FL, 32424",17324 Main Street North,Blountstown,FL,32424,Calhoun,850-674-4557
15821,Woodlawn Pharmacy,42.2674279,-94.7313716,"101 N Woodlawn Ave, Lake City, IA, 51449",101 N Woodlawn Ave,Lake City,IA,51449,Calhoun,712-464-8811
16854,Savemax Pharmacy,42.303898,-83.1447348,"231 North Ave, Battle Creek, MI, 49017",231 North Ave,Battle Creek,MI,49017,Calhoun,313-551-9949
20130,Capital Ave Pharmacy,42.3048575,-85.1991798,"629 Capital Ave Sw, Battle Creek, MI, 49015",629 Capital Ave Sw,Battle Creek,MI,49015,Calhoun,269-339-0121
16641,Luxcare Pharmacy,42.2666419,-85.1982262,"2503 Capital Ave Sw, Battle Creek, MI, 49015",2503 Capital Ave Sw,Battle Creek,MI,49015,Calhoun,269-883-9900
9431,Larmours Village Drug,42.088369,-85.2355706,"106 S Capital Ave, Athens, MI, 49011",106 S Capital Ave,Athens,MI,49011,Calhoun,269-729-5161
2291,Chandler Health Drug,33.991756,-89.3479359,"131 Main Street, Calhoun City, MS, 38916",131 Main Street,Calhoun City,MS,38916,Calhoun,662-628-5331
3575,Saint Matthews Health Mart Pharmacy,33.6653973,-80.7771129,"708 Huff Drive, Saint Matthews, SC, 29135",708 Huff Drive,Saint Matthews,SC,29135,Calhoun,803-655-7800
5246,Martella's Health Mart Pharmacy,40.3048808,-78.9184406,"1079 Franklin Street, Johnstown, PA, 15905",1079 Franklin Street,Johnstown,PA,15905,Cambria,814-535-1833
5922,Martella's At Hill Health Mart Pharmacy,40.3741484,-78.8730822,"1932 William Penn Highway, Johnstown, PA, 15909",1932 William Penn Highway,Johnstown,PA,15909,Cambria,814-322-1011
19093,Camden Pharmacy,30.7834766,-81.6138789,"214 B Professional Cir, Saint Marys, GA, 31558",214 B Professional Cir,Saint Marys,GA,31558,Camden,912-673-8220
8466,Lake Regional Pharmacy - CMc,38.2023212,-92.9427274,"1930-C N Business Route 5, Camdenton, MO, 65020",1930-C N Business Route 5,Camdenton,MO,65020,Camden,573-346-2300
8467,Lake Regional Pharmacy - Obmp,38.1206965,-92.6810153,"1057 B Medical Park Dr, Osage Beach, MO, 65065",1057 B Medical Park Dr,Osage Beach,MO,65065,Camden,573-302-2700
8429,Lake Regional Pharmacy - Lo,38.1927838,-92.6438615,"1870 Bagnell Dam Blvd, Lake Ozark, MO, 65049",1870 Bagnell Dam Blvd,Lake Ozark,MO,65049,Camden,573-964-6200
15142,Bienestar Pharmacy & Wellness Center,39.8185199,-74.9808839,"799 S Emerson Ave, Clementon, NJ, 08021",799 S Emerson Ave,Clementon,NJ,8021,Camden,856-805-7991
7171,United Care Health Mart Pharmacy,25.936427,-97.5018894,"1755 West Price Road Ste, Brownsville, TX, 78520",1755 West Price Road Ste,Brownsville,TX,78520,Cameron,956-546-0444
7530,Complete Rx Pharmacy,25.9355259,-97.4901489,"1885 E Price Rd Ste B, Brownsville, TX, 78521",1885 E Price Rd Ste B,Brownsville,TX,78521,Cameron,956-554-3532
7527,Las Palmas Pharmacy,25.9192694,-97.5108865,"864 Central Blvd Suite 12, Brownsville, TX, 78520",864 Central Blvd Suite 12,Brownsville,TX,78520,Cameron,956-542-7400
9234,La Farmacia,25.9204963,-97.4630271,"5460 Paredes Line Rd Ste199 Ste 199, Brownsville, TX, 78526",5460 Paredes Line Rd Ste199 Ste 199,Brownsville,TX,78526,Cameron,956-621-0228
7166,The Friendly Health Mart Pharmacy,25.9206821,-97.4689754,"3302 Boca Chica Blve Ste, Brownsville, TX, 78521",3302 Boca Chica Blve Ste,Brownsville,TX,78521,Cameron,956-544-1200
7889,Avenue Pharmacy,39.1101662,-84.4784365,"201 6th Avenue, Dayton, KY, 41074",201 6th Avenue,Dayton,KY,41074,Campbell,859-491-1700
7415,Alexandria Drugs,38.9710566,-84.3923267,"7857 Us 27, Alexandria, KY, 41001",7857 Us 27,Alexandria,KY,41001,Campbell,859-635-2171
7915,Newport Drug Center,39.085793,-84.491926,"39 W 10th Street, Newport, KY, 41071",39 W 10th Street,Newport,KY,41071,Campbell,859-291-2578
2374,Conrad Marr Health Mart Pharmacy,35.4791992,-97.7246794,"948 South Yukon Parkway, Yukon, OK, 73099",948 South Yukon Parkway,Yukon,OK,73099,Canadian,405-354-2582
7892,Piedmont Pharmacy & Gifts,35.6141654,-97.7453095,"97 Gooder Simpson Blvd, Piedmont, OK, 73078",97 Gooder Simpson Blvd,Piedmont,OK,73078,Canadian,405-373-3090
7749,United Pharmacy,35.4981608,-97.742091,"901 S Cornwell, Yukon, OK, 73099",901 S Cornwell,Yukon,OK,73099,Canadian,405-354-5233
6921,Miller Drug Health Mart,35.5934781,-97.7207895,"11101 Surrey Hills Blvd, Yukon, OK, 73099",11101 Surrey Hills Blvd,Yukon,OK,73099,Canadian,405-373-1717
7893,West Pointe Pharmacy,35.4601156,-97.7234661,"520 S Mustang Rd, Yukon, OK, 73099",520 S Mustang Rd,Yukon,OK,73099,Canadian,405-256-6653
7910,Canadian Valley Pharmacy,35.522401,-97.9727102,"1605 W Elm St, El Reno, OK, 73036",1605 W Elm St,El Reno,OK,73036,Canadian,405-262-4154
18579,Candler Pharmacy,32.3837076,-82.0610788,"745 S Lewis Street, Metter, GA, 30439",745 S Lewis Street,Metter,GA,30439,Candler,912-685-2000
4807,Medical Clinic Health Mart Pharmacy,43.653882,-116.694786,"315 E Elm Ste 150, Caldwell, ID, 83605",315 E Elm Ste 150,Caldwell,ID,83605,Canyon,208-459-1503
19702,Park Pharmacy,37.2977406,-89.5752199,"37 Doctors Park 2, Cape Girardeau, MO, 63703",37 Doctors Park 2,Cape Girardeau,MO,63703,Cape Girardeau,573-334-4432
19814,Broadway Pharmacy,37.306861,-89.5269443,"710 Broadway St, Cape Girardeau, MO, 63701",710 Broadway St,Cape Girardeau,MO,63701,Cape Girardeau,573-335-8207
19502,Healing Arts & Spec Phcy,37.3036399,-89.5716766,"3250 Gordonville Rd - 101, Cape Girardeau, MO, 63703",3250 Gordonville Rd - 101,Cape Girardeau,MO,63703,Cape Girardeau,573-339-0999
5305,Medicenter Health Pharmacy,37.383781,-89.668822,"200 W Washington St, Jackson, MO, 63755",200 W Washington St,Jackson,MO,63755,Cape Girardeau,573-243-1303
8366,Medicenter Pharmacy,37.28945,-89.5715591,"465 S Mount Auburn Rd, Cape Girardeau, MO, 63703",465 S Mount Auburn Rd,Cape Girardeau,MO,63703,Cape Girardeau,573-651-5250
17401,Price Family Pharmacy,39.5992429,-110.8109396,"4 E Main St, Price, UT, 84501",4 E Main St,Price,UT,84501,Carbon,435-637-3737
8606,Bardwell Pharmacy Llc,36.8667368,-89.0017064,"178 Us Hwy 51 N, Bardwell, KY, 42023",178 Us Hwy 51 N,Bardwell,KY,42023,Carlisle,270-628-5445
6386,Cantner's Drug,38.6973119,-75.7862449,"323 Bloomingdale Ave, Federalsburg, MD, 21632",323 Bloomingdale Ave,Federalsburg,MD,21632,Caroline,410-754-5200
20081,Holiday Island Pharmacy,36.4543972,-93.7221694,"2 Forest Park Dr Ste A, Eureka Springs, AR, 72631",2 Forest Park Dr Ste A,Eureka Springs,AR,72631,Carroll,800-555-5555
11613,Poynor Drug Llc,36.3646711,-93.5682011,"408 Public Square, Berryville, AR, 72616",408 Public Square,Berryville,AR,72616,Carroll,870-423-2737
9016,Johnson Pharmacy,33.5388897,-85.2516109,"205 East College St, Bowdon, GA, 30108",205 East College St,Bowdon,GA,30108,Carroll,678-257-5400
17221,Lincoln Highway Pharmacy,42.0641396,-94.8545833,"859 E Us Highway 30, Carroll, IA, 51401",859 E Us Highway 30,Carroll,IA,51401,Carroll,712-792-2402
17234,Clinic Pharmacy Of Carroll,42.0548733,-94.8671809,"405 S Clark St Ste 102, Carroll, IA, 51401",405 S Clark St Ste 102,Carroll,IA,51401,Carroll,712-792-5393
8201,Lanark Pharmacy,42.1020589,-89.8330848,"102 N Broad St, Lanark, IL, 61046",102 N Broad St,Lanark,IL,61046,Carroll,815-493-2080
5793,Carroll Drugs Manchester,39.6611369,-76.885581,"3128 Westminster Street, Manchester, MD, 21102",3128 Westminster Street,Manchester,MD,21102,Carroll,410-374-1414
17810,Anchor Pharmacy & Medical Supplies,39.5627685,-76.9876257,"205 Wash Hgts Medical Ctr, Westminster, MD, 21157",205 Wash Hgts Medical Ctr,Westminster,MD,21157,Carroll,410-848-8900
2578,Family Health Pharmacy Of Hampstead,39.600943,-76.8480386,"907 S Main Street Ste A, Hampstead, MD, 21074",907 S Main Street Ste A,Hampstead,MD,21074,Carroll,410-239-3100
6029,Manchester Drug,39.666008,-76.885467,"3321 Main Street Unit A1, Manchester, MD, 21102",3321 Main Street Unit A1,Manchester,MD,21102,Carroll,410-239-2300
5899,Super Drugs Health Mart Pharmacy,36.132239,-88.5178568,"2340 Cedar Street, Mc Kenzie, TN, 38201",2340 Cedar Street,Mc Kenzie,TN,38201,Carroll,731-352-3242
4061,Horton Bros Brown Health Mart Pharmacy,38.332198,-82.946775,"201 East Main St, Grayson, KY, 41143",201 East Main St,Grayson,KY,41143,Carter,606-474-5655
4240,Van Buren Health Mart Pharmacy,36.9979125,-91.0146701,"406 Main Street, Van Buren, MO, 63965",406 Main Street,Van Buren,MO,63965,Carter,573-323-8159
19515,Dahl Memorial Healthcare Community Pharmacy,45.8879126,-104.5485564,"215 Sandy St, Ekalaka, MT, 59324",215 Sandy St,Ekalaka,MT,59324,Carter,406-775-8896
2781,Henry Roberts Health Mart Pharmacy,34.1874926,-97.1455219,"1316 12th Nw, Ardmore, OK, 73401",1316 12th Nw,Ardmore,OK,73401,Carter,880-226-2684
7599,T & M Pharmacy Inc,34.1862218,-97.1318518,"423 12th Nw, Ardmore, OK, 73401",423 12th Nw,Ardmore,OK,73401,Carter,580-223-0671
19969,Steele Drug,34.1796949,-97.1390449,"907 Grand Ave, Ardmore, OK, 73401",907 Grand Ave,Ardmore,OK,73401,Carter,
19992,Lone Grove Pharmacy,34.1723891,-97.2418162,"45 Almond Dr, Ardmore, OK, 73401",45 Almond Dr,Ardmore,OK,73401,Carter,580-657-4040
8469,Lingerfelt Drug Center,36.3515147,-82.2316191,"609 Elk Ave, Elizabethton, TN, 37643",609 Elk Ave,Elizabethton,TN,37643,Carter,423-542-2138
16818,Reed Pharmacy,36.3493945,-82.2400318,"851 West Elk Ave, Elizabethton, TN, 37643",851 West Elk Ave,Elizabethton,TN,37643,Carter,423-518-1088
4852,Roan Mountain Health Mart Pharmacy,36.1995187,-82.0703629,"8251 Highway 19e, Roan Mountain, TN, 37687",8251 Highway 19e,Roan Mountain,TN,37687,Carter,423-772-3591
7042,Public Drug Health Mart,47.505207,-111.301256,"324 Central Avenue, Great Falls, MT, 59401",324 Central Avenue,Great Falls,MT,59401,Cascade,406-453-1497
3523,Rex Pharmacy,41.4032981,-94.9896888,"507 Chestnut Street, Atlantic, IA, 50022",507 Chestnut Street,Atlantic,IA,50022,Cass,712-243-2110
7832,Longbella Drug - Motley,46.3247014,-94.6482236,"716 Us 10, Motley, MN, 56466",716 Us 10,Motley,MN,56466,Cass,218-352-6337
7801,Longbella Drug - Pillager,46.3283729,-94.47468,"653 Pillsbury Str, Pillager, MN, 56473",653 Pillsbury Str,Pillager,MN,56473,Cass,218-746-4321
20387,Prosperity Health Pharmac,46.8040471,-96.8252449,"5180 Prosperity Way 106, Fargo, ND, 58104",5180 Prosperity Way 106,Fargo,ND,58104,Cass,701-866-3920
18314,West Acres Pharmacy,46.8589499,-96.8462562,"3902 13th Ave S, Fargo, ND, 58103",3902 13th Ave S,Fargo,ND,58103,Cass,701-282-0285
6335,Medical Pharmacy,46.8174531,-96.8639088,"4151 45th St So, Fargo, ND, 58104",4151 45th St So,Fargo,ND,58104,Cass,701-282-8075
18313,Dakota Clinic Pharmacy,46.8537997,-96.7974585,"1702 S University Drive, Fargo, ND, 58103",1702 S University Drive,Fargo,ND,58103,Cass,800-555-5555
18347,Health Center Pharmacy,46.8614513,-96.8768174,"1401 13th Ave E Ste B, West Fargo, ND, 58078",1401 13th Ave E Ste B,West Fargo,ND,58078,Cass,701-364-5800
19429,Medical Pharmacy Sheyenne,46.847558,-96.9079443,"2050 Sheyenne St, West Fargo, ND, 58078",2050 Sheyenne St,West Fargo,ND,58078,Cass,701-630-0695
18321,Dakota Clinic Phy-32 Ave,46.831384,-96.8277872,"3000 32nd Ave S, Fargo, ND, 58103",3000 32nd Ave S,Fargo,ND,58103,Cass,701-364-7800
16295,Prairie Pharmacy,46.8643486,-96.865279,"4731 13th Ave Sw, Fargo, ND, 58103",4731 13th Ave Sw,Fargo,ND,58103,Cass,701-373-0325
18519,Blakes Pharmacy,41.000517,-96.162384,"213 Main St Po Box 339, Louisville, NE, 68037",213 Main St Po Box 339,Louisville,NE,68037,Cass,402-234-3025
2957,Kwik-Meds Health Mart Pharmacy,42.550522,-113.793997,"256 Overland Avenue, Burley, ID, 83318",256 Overland Avenue,Burley,ID,83318,Cassia,208-878-6337
21934,Island Pharmacy,31.854008,-91.6591776,"311 Chisum St, Sicily Island, LA, 71368",311 Chisum St,Sicily Island,LA,71368,Catahoula Parish,318-389-5807
16306,Long View Drug,35.729027,-81.383401,"2637 1st Ave Sw, Hickory, NC, 28602",2637 1st Ave Sw,Hickory,NC,28602,Catawba,828-324-7948
5616,Bethlehem Pharmacy,35.8156715,-81.3059727,"9471 Nc Highway 127, Hickory, NC, 28601",9471 Nc Highway 127,Hickory,NC,28601,Catawba,828-495-8258
18337,Medical Village Pharmacy,35.714328,-81.264472,"815 Fairgrove Church Rd S, Conover, NC, 28613",815 Fairgrove Church Rd S,Conover,NC,28613,Catawba,828-322-4505
5329,Medical Center Health Mart Pharmacy,35.7341334,-81.3378462,"126 North Center Street, Hickory, NC, 28601",126 North Center Street,Hickory,NC,28601,Catawba,828-322-7717
2187,Bowman Health Drug,35.705735,-81.219571,"126 First Avenue South, Conover, NC, 28613",126 First Avenue South,Conover,NC,28613,Catawba,828-464-1354
9168,Battlefield Pharmacy,34.9479313,-85.2339697,"1543 Battlefield Pkwy, Fort Oglethorpe, GA, 30742",1543 Battlefield Pkwy,Fort Oglethorpe,GA,30742,Catoosa,706-956-8605
8237,Bartholomew's Pharmacy Inc,42.3371552,-78.4579042,"2 Elm Street, Franklinville, NY, 14737",2 Elm Street,Franklinville,NY,14737,Cattaraugus,716-676-3350
7099,South Dayton Health Mart Pharmacy,42.361566,-79.051624,"303 Pine Street, South Dayton, NY, 14138",303 Pine Street,South Dayton,NY,14138,Cattaraugus,716-988-3410
2973,Langdon Community,48.7602057,-98.3682126,"805 3rd St, Langdon, ND, 58249",805 3rd St,Langdon,ND,58249,Cavalier,701-256-3330
9053,Northside Pharmacy Inc,39.6167406,-75.8382223,"707 N Bridge St Suite B, Elkton, MD, 21921",707 N Bridge St Suite B,Elkton,MD,21921,Cecil,410-398-3784
17711,Tipton Pharmacy,41.7702964,-91.1272821,"124 East Fifth St, Tipton, IA, 52772",124 East Fifth St,Tipton,IA,52772,Cedar,563-886-2158
6277,Evans Drugs - El Dorado Springs,37.8636441,-94.0199611,"209 E Us Hwy 54, El Dorado Springs, MO, 64744",209 E Us Hwy 54,El Dorado Springs,MO,64744,Cedar,417-876-3313
9067,Evans Drugs - Stockton,37.6990841,-93.7966363,"19 Public Sq, Stockton, MO, 65785",19 Public Sq,Stockton,MO,65785,Cedar,417-276-3128
3077,Main Street Health Mart Apothecary,42.4296564,-97.0897173,"201 East 2nd Street, Laurel, NE, 68745",201 East 2nd Street,Laurel,NE,68745,Cedar,402-256-3511
5163,Hood's Health Mart Pharmacy,32.8269453,-85.1745089,"4500 - 20th Avenue, Valley, AL, 36854",4500 - 20th Avenue,Valley,AL,36854,Chambers,334-756-3219
4345,Valley Pharmacy Dme,32.8308701,-85.1757234,"4103 20th Avenue, Valley, AL, 36854",4103 20th Avenue,Valley,AL,36854,Chambers,334-756-2037
5946,Fairfax Drug,32.7979882,-85.1845823,"89 Trammell Block, Valley, AL, 36854",89 Trammell Block,Valley,AL,36854,Chambers,334-756-2305
4385,Lowe's Pharmacy,32.8829393,-85.4098922,"339 9th Avenue Sw, Lafayette, AL, 36862",339 9th Avenue Sw,Lafayette,AL,36862,Chambers,334-864-7781
6373,County Market Pharmacy 518,40.0966122,-88.2939348,"2901 W Kirby Ave, Champaign, IL, 61821",2901 W Kirby Ave,Champaign,IL,61821,Champaign,217-351-3108
8307,St Joseph Apothecary,40.1125316,-88.0413594,"204 N Main, Saint Joseph, IL, 61873",204 N Main,Saint Joseph,IL,61873,Champaign,217-469-2232
21780,The Phcy At St Patrick's,38.6179866,-76.9205304,"10 Saint Patricks Dr, Waldorf, MD, 20603",10 Saint Patricks Dr,Waldorf,MD,20603,Charles,301-632-1000
8779,Plantation Pharmacy,32.787168,-80.020888,"531 Wappoo Road, Charleston, SC, 29407",531 Wappoo Road,Charleston,SC,29407,Charleston,843-556-1994
8850,Plantation Pharmacy,32.747363,-79.969032,"776 Daniel Ellis Dr 2c, Charleston, SC, 29412",776 Daniel Ellis Dr 2c,Charleston,SC,29412,Charleston,843-795-9554
6649,Adams Drug Health Mart Pharmacy,40.5163152,-101.6431169,"513 Broadway, Imperial, NE, 69033",513 Broadway,Imperial,NE,69033,Chase,308-882-4949
6872,Quick Rx Drugs Pooler Health Mart Pharmacy,32.1385354,-81.2539908,"110 Medical Park Drive, Pooler, GA, 31322",110 Medical Park Drive,Pooler,GA,31322,Chatham,912-748-3194
6851,Quick Rx Drugs Garden City Health Mart Pharmacy,32.1183046,-81.1653585,"5204 Augusta Road, Savannah, GA, 31408",5204 Augusta Road,Savannah,GA,31408,Chatham,912-966-5665
6858,Quick Rx Drugs Health Mart Pharmacy,32.029581,-81.093149,"911 East 65th Street, Savannah, GA, 31405",911 East 65th Street,Savannah,GA,31405,Chatham,912-355-0122
6871,Quick Rx Drugs Whitemarsh Island Health Mart Pharmacy,32.036919,-80.991302,"1001 Memorial Lane, Savannah, GA, 31410",1001 Memorial Lane,Savannah,GA,31410,Chatham,912-898-7535
9541,Apollo Pharmacy 2,32.1337343,-81.2540774,"111 Canal St Ste 101, Pooler, GA, 31322",111 Canal St Ste 101,Pooler,GA,31322,Chatham,912-988-7185
17301,Village Walk Pharmacy,31.9411329,-81.0525874,"1 Skidaway Village Walk, Savannah, GA, 31411",1 Skidaway Village Walk,Savannah,GA,31411,Chatham,912-598-8669
9175,Apollo Pharmacy,32.0804527,-81.0968337,"418 W Broughton Street, Savannah, GA, 31401",418 W Broughton Street,Savannah,GA,31401,Chatham,912-999-6101
9714,Lo Cost Pharmacy,32.0285017,-81.0972825,"612 E 69th St, Savannah, GA, 31405",612 E 69th St,Savannah,GA,31405,Chatham,912-352-0375
6455,Crossroads Family,34.484795,-85.4443817,"7838 Highway 48, Menlo, GA, 30731",7838 Highway 48,Menlo,GA,30731,Chattooga,706-862-2064
3815,Trion Drugs,34.5306386,-85.309016,"49 Harrell Street, Trion, GA, 30753",49 Harrell Street,Trion,GA,30753,Chattooga,706-734-2481
3201,Modern Health Mart Pharmacy,45.6439224,-84.4778303,"127 North Main, Cheboygan, MI, 49721",127 North Main,Cheboygan,MI,49721,Cheboygan,231-627-9949
16484,Modern Rx,45.4056428,-84.6150744,"3944 S Straits Highway, Indian River, MI, 49749",3944 S Straits Highway,Indian River,MI,49749,Cheboygan,231-238-2499
3949,Wenatchee Clinic Health Mart Pharmacy,47.4342759,-120.3225673,"9th & Chelan St, Wenatchee, WA, 98807",9th & Chelan St,Wenatchee,WA,98807,Chelan,509-662-5801
8568,Gerould's Pharmacy,42.083577,-76.8056315,"130 S Main Street, Elmira, NY, 14904",130 S Main Street,Elmira,NY,14904,Chemung,607-733-6696
8569,Gerould's Pharmacy,42.0850958,-76.8228545,"215 Hoffman St, Elmira, NY, 14905",215 Hoffman St,Elmira,NY,14905,Chemung,607-732-0597
8536,Gerould's Pharmacy,42.176334,-76.838545,"2887 Westinghouse Rd, Horseheads, NY, 14845",2887 Westinghouse Rd,Horseheads,NY,14845,Chemung,607-796-2193
2103,Bartle's Health Mart Pharmacy,42.442775,-75.597781,"10 Lafayette Park, Oxford, NY, 13830",10 Lafayette Park,Oxford,NY,13830,Chenango,607-843-2841
4270,Alaco Discount Health Mart Pharmacy #6,34.1610369,-85.7032728,"1490 Chestnut Bypass, Centre, AL, 35960",1490 Chestnut Bypass,Centre,AL,35960,Cherokee,256-927-8539
5536,Deans Drugs Health Mart Pharmacy,34.1594037,-85.6692412,"699 Cedar Bluff Rd, Centre, AL, 35960",699 Cedar Bluff Rd,Centre,AL,35960,Cherokee,256-927-5556
3287,Northside Canton Health Mart Pharmacy,34.2432184,-84.4952155,"170 Marietta Hwy, Canton, GA, 30114",170 Marietta Hwy,Canton,GA,30114,Cherokee,770-479-2171
6074,Pharmoore Pharmacy,34.173771,-84.548396,"3422 Sixes Rd Ste 106, Canton, GA, 30114",3422 Sixes Rd Ste 106,Canton,GA,30114,Cherokee,678-285-0760
4618,Woodstock Health Mart Pharmacy,34.1007254,-84.5199261,"8612 Main Street, Woodstock, GA, 30188",8612 Main Street,Woodstock,GA,30188,Cherokee,770-926-6478
3289,Northside Health Mart Pharmacy,34.315402,-84.549852,"6824 Reinhardt College Pk, Waleska, GA, 30183",6824 Reinhardt College Pk,Waleska,GA,30183,Cherokee,770-479-2172
5362,Ball Ground Health Mart Pharmacy,34.3260703,-84.3879261,"470 Valley St Ste 100, Ball Ground, GA, 30107",470 Valley St Ste 100,Ball Ground,GA,30107,Cherokee,770-735-6161
8194,Monarch Pharmacy,37.0193464,-94.7356553,"1601 Military Ave, Baxter Springs, KS, 66713",1601 Military Ave,Baxter Springs,KS,66713,Cherokee,620-856-3030
5221,Evan's Drug,37.1696962,-94.8433141,"116 W Pine, Columbus, KS, 66725",116 W Pine,Columbus,KS,66725,Cherokee,620-429-3322
6809,Cherokee Hills Health Mart Pharmacy,35.8950293,-94.9768733,"1607 S Muskogee Ave Ste D, Tahlequah, OK, 74464",1607 S Muskogee Ave Ste D,Tahlequah,OK,74464,Cherokee,918-456-2531
18208,Tahlequah Drug Co,35.8911995,-94.9744209,"2028 Mahaney Ave, Tahlequah, OK, 74464",2028 Mahaney Ave,Tahlequah,OK,74464,Cherokee,918-431-0555
18174,Tmc Pharmacy,35.9148297,-94.9481586,"1500 E Downing Ste 106, Tahlequah, OK, 74464",1500 E Downing Ste 106,Tahlequah,OK,74464,Cherokee,918-456-0694
16510,Medicine Mart Of Gaffney,35.0743562,-81.6481889,"305 North Limestone, Gaffney, SC, 29340",305 North Limestone,Gaffney,SC,29340,Cherokee,864-489-5198
9540,Heart City Drug,42.8720066,-100.5502458,"265 N Main St, Valentine, NE, 69201",265 N Main St,Valentine,NE,69201,Cherry,402-376-5959
6387,Newman Family,36.6975554,-76.2340936,"800 S Battlefield Blvd 105-107, Chesapeake, VA, 23322",800 S Battlefield Blvd 105-107,Chesapeake,VA,23322,Chesapeake city,757-482-0960
21784,Coatesville Pharmacy,39.983313,-75.820551,"270 E Lincoln Hwy, Coatesville, PA, 19320",270 E Lincoln Hwy,Coatesville,PA,19320,Chester,610-380-8520
19868,Chester Family Pharmacy,34.6978391,-81.1925335,"1645 J A Cochran Bypass Suite G, Chester, SC, 29706",1645 J A Cochran Bypass Suite G,Chester,SC,29706,Chester,
16737,Richburg Discount Phy,34.745851,-81.030402,"3191 Lancaster Hwy Ste H, Richburg, SC, 29729",3191 Lancaster Hwy Ste H,Richburg,SC,29729,Chester,803-500-2998
9535,Black's Drug Store,34.7038144,-81.2116752,"121 Church St, Chester, SC, 29706",121 Church St,Chester,SC,29706,Chester,803-581-2102
11898,Great Falls Rx,34.5830579,-80.906353,"503 Chester Ave Suite A, Great Falls, SC, 29055",503 Chester Ave Suite A,Great Falls,SC,29055,Chester,803-482-2249
4397,Dee's Discount Health Mart Pharmacy,35.4425317,-88.6621245,"689 Kimberly Drive, Henderson, TN, 38340",689 Kimberly Drive,Henderson,TN,38340,Chester,731-989-7180
6574,City Health Drug Store,35.4394035,-88.6408522,"118 East Main, Henderson, TN, 38340",118 East Main,Henderson,TN,38340,Chester,731-989-2166
16291,Pageland Family Pharmacy,34.7720212,-80.3817873,"214 S Van Lingle Mungo Bl, Pageland, SC, 29728",214 S Van Lingle Mungo Bl,Pageland,SC,29728,Chesterfield,843-675-2014
17628,Csc CM Phy Cheraw,34.6952618,-79.9205735,"715 S Doctors Dr Ste A, Cheraw, SC, 29520",715 S Doctors Dr Ste A,Cheraw,SC,29520,Chesterfield,843-865-4080
5802,Buford Road Health Mart Pharmacy,37.5337526,-77.562035,"2608 Buford Road, Richmond, VA, 23235",2608 Buford Road,Richmond,VA,23235,Chesterfield,804-272-1423
2132,Bennett Health Mart Pharmacy,43.0595242,-92.3155764,"1 West Main Street, New Hampton, IA, 50659",1 West Main Street,New Hampton,IA,50659,Chickasaw,641-394-4156
4245,Wright Drug & Gift Pharmacy,32.8355948,-86.6291449,"206 7th Street S, Clanton, AL, 35046",206 7th Street S,Clanton,AL,35046,Chilton,205-755-3350
6052,Thorsby Drugs,32.9167632,-86.7164612,"4 Minnesota Ave, Thorsby, AL, 35171",4 Minnesota Ave,Thorsby,AL,35171,Chilton,205-688-3784
7025,Maplesville Health Mart Pharmacy,32.784064,-86.8731494,"9081 Al Hwy 22 Po Box 145, Maplesville, AL, 36750",9081 Al Hwy 22 Po Box 145,Maplesville,AL,36750,Chilton,334-366-2425
4497,Chandler Drug Health Mart Pharmacy,32.8255339,-86.6205186,"914 7th Street South, Clanton, AL, 35045",914 7th Street South,Clanton,AL,35045,Chilton,205-755-8009
9284,Sault Community Pharmacy,46.49919,-84.3499008,"560 Govenor Osborn Blvd, Sault Sainte Marie, MI, 49783",560 Govenor Osborn Blvd,Sault Sainte Marie,MI,49783,Chippewa,906-632-2122
9271,Arfstrom Pharmacy Ssm,46.4978328,-84.3471506,"415 Ashmun Street, Sault Sainte Marie, MI, 49783",415 Ashmun Street,Sault Sainte Marie,MI,49783,Chippewa,906-632-9661
2386,Cornell Health Mart Pharmacy,45.167654,-91.14882,"300 Main Street, Cornell, WI, 54732",300 Main Street,Cornell,WI,54732,Chippewa,715-239-6453
3178,Miller Health Mart Pharmacy,44.948276,-91.1502749,"318 N Main Street, Cadott, WI, 54727",318 N Main Street,Cadott,WI,54727,Chippewa,715-289-3243
4943,Chippewa Clinic Health Mart Pharmacy,45.0778766,-91.0138369,"2449 Country Trunk I, Chippewa Falls, WI, 54729",2449 Country Trunk I,Chippewa Falls,WI,54729,Chippewa,715-723-2824
4541,Hometown Health Mart Pharmacy,31.8770186,-88.3229591,"69 West Main St, Gilbertown, AL, 36908",69 West Main St,Gilbertown,AL,36908,Choctaw,251-843-2400
4542,Willard's Medical Health Mart Pharmacy,32.0898513,-88.2198796,"2129 Timberlane Rd, Butler, AL, 36904",2129 Timberlane Rd,Butler,AL,36904,Choctaw,205-604-9006
4439,Mr Discount Health Mart Pharmacy Butler,32.0896643,-88.216503,"604 E Pushmataha St, Butler, AL, 36904",604 E Pushmataha St,Butler,AL,36904,Choctaw,205-459-2990
6759,Hugo Family Pharmacy,34.0106898,-95.5077511,"420 E Jackson St, Hugo, OK, 74743",420 E Jackson St,Hugo,OK,74743,Choctaw,580-326-8337
7838,Hugo Express Pharmacy,34.0104602,-95.4993499,"1200 E Jackson, Hugo, OK, 74743",1200 E Jackson,Hugo,OK,74743,Choctaw,580-326-1600
16892,Rapidrx Pharmacy,36.8399422,-87.4830693,"2713 Fort Campbell Blvd, Hopkinsville, KY, 42240",2713 Fort Campbell Blvd,Hopkinsville,KY,42240,Christian,270-962-7530
8799,Trust Pharmacy,35.1611835,-107.828355,"1000 E Roosevelt Ave, Grants, NM, 87020",1000 E Roosevelt Ave,Grants,NM,87020,Cibola,505-287-3913
2178,Boise City Health Mart Pharmacy,36.729717,-102.5162163,"318 W Main Street, Boise City, OK, 73933",318 W Main Street,Boise City,OK,73933,Cimarron,580-544-3441
4048,G & R Health Mart Pharmacy,28.9185788,-82.4688519,"3791 N Lecanto Hwy, Beverly Hills, FL, 34465",3791 N Lecanto Hwy,Beverly Hills,FL,34465,Citrus,352-527-3111
7844,G & R Pharmacy #3,28.8998827,-82.4187761,"1298 E Norvell Bryant Hwy Suite D, Hernando, FL, 34442",1298 E Norvell Bryant Hwy Suite D,Hernando,FL,34442,Citrus,352-419-8949
5947,G & R Health Mart Pharmacy #2,28.7796471,-82.5553917,"5691 S Suncoast Blvd, Homosassa, FL, 34446",5691 S Suncoast Blvd,Homosassa,FL,34446,Citrus,352-628-0096
17193,Stanifer Drugs,36.4451747,-83.5962607,"420 N Broad St, New Tazewell, TN, 37825",420 N Broad St,New Tazewell,TN,37825,Claiborne,423-626-7337
22013,Claiborne Pharmacy,32.8016711,-93.0561723,"833 W Main St, Homer, LA, 71040",833 W Main St,Homer,LA,71040,Claiborne Parish,318-927-3523
5878,Anderson Health Mart Pharmacy,33.6889229,-80.212131,"419 South MIll Street, Manning, SC, 29102",419 South MIll Street,Manning,SC,29102,Clarendon,803-433-2212
5893,Summerton Drug Health Mart Pharmacy,33.6084462,-80.3506214,"115-B Main Street, Summerton, SC, 29148",115-B Main Street,Summerton,SC,29148,Clarendon,803-485-8586
6452,Clarion Pharmacy,41.1832899,-79.3912204,"30 Pinnacle Drive, Clarion, PA, 16214",30 Pinnacle Drive,Clarion,PA,16214,Clarion,814-226-4015
20146,Allcare Pharmacy #29,34.119342,-93.053447,"521 Main Street, Arkadelphia, AR, 71923",521 Main Street,Arkadelphia,AR,71923,Clark,870-403-9400
20154,Allcare Pharmacy #13 Correctional,34.119069,-93.054661,"624 Clay Street, Arkadelphia, AR, 71923",624 Clay Street,Arkadelphia,AR,71923,Clark,870-246-5233
20159,Allcare Pharmacy #32 Alf,34.119343,-93.053149,"515 Main Street, Arkadelphia, AR, 71923",515 Main Street,Arkadelphia,AR,71923,Clark,870-246-5553
16585,Milligan Pharmacy,37.1887919,-99.7657929,"721 Main St Po Box 308, Ashland, KS, 67831",721 Main St Po Box 308,Ashland,KS,67831,Clark,620-635-2322
20239,Hometown Pharmacy,37.9902958,-84.2093088,"200 Codella Dr Ste C, Winchester, KY, 40391",200 Codella Dr Ste C,Winchester,KY,40391,Clark,859-759-2102
9650,Tango Pharmacy,36.2396111,-115.195164,"4090 W Craig Rd Ste 101, North Las Vegas, NV, 89032",4090 W Craig Rd Ste 101,North Las Vegas,NV,89032,Clark,702-636-2054
20206,Alto Pharmacy,36.0684054,-115.1501001,"600 Pilot Rd Ste A, Las Vegas, NV, 89119",600 Pilot Rd Ste A,Las Vegas,NV,89119,Clark,702-701-4608
7814,Sunrise Medical Pharmacy,36.1351493,-115.1368439,"3006 South Maryland Pkwy, Las Vegas, NV, 89109",3006 South Maryland Pkwy,Las Vegas,NV,89109,Clark,702-203-1045
18168,Santa Maria Pharmacy,36.0706957,-115.0911262,"3827 E Sunset Rd Ste L, Las Vegas, NV, 89120",3827 E Sunset Rd Ste L,Las Vegas,NV,89120,Clark,702-741-3735
6116,Ok'care Pharmacy,36.1009731,-115.2432053,"4845 S Rainbow Blvd 403, Las Vegas, NV, 89103",4845 S Rainbow Blvd 403,Las Vegas,NV,89103,Clark,702-538-9388
