store_number,latitude,longitude,full_address,address,city,state,zip,county,phone
3543,34.1616,-82.383,"902 W Greenwood St, Abbeville, SC, 29620",902 W Greenwood St,Abbeville,SC,29620,Abbeville,864-459-5406
1570,37.6964,-75.7195,"25201 Lankford Hwy, Onley, VA, 23418",25201 Lankford Hwy,Onley,VA,23418,Accomack,757-787-1810
11169,43.6194,-116.2742,"7402 West Fairview Ave, Boise, ID, 83704",7402 West Fairview Ave,Boise,ID,83704,Ada,208-375-4670
10049,37.0952,-85.302,"803 Jamestown St, Columbia, KY, 42728",803 Jamestown St,Columbia,KY,42728,Adair,270-384-0539
17263,39.9564,-104.7806,"2171 Prairie Center Pkwy, Brighton, CO, 80601",2171 Prairie Center Pkwy,Brighton,CO,80601,Adams,303-219-9056
16711,39.9167,-104.9747,"1001 E 120th Ave, Denver, CO, 80233",1001 E 120th Ave,Denver,CO,80233,Adams,303-280-6273
8636,39.9366,-91.3664,"436 North 30th Street, Quincy, IL, 62301",436 North 30th Street,Quincy,IL,62301,Adams,217-224-2828
6516,40.829,-84.9368,"1221 West Monroe St, Decatur, IN, 46733",1221 West Monroe St,Decatur,IN,46733,Adams,260-724-2568
6528,40.6663,-84.9562,"928 Us 27 N, Berne, IN, 46711",928 Us 27 N,Berne,IN,46711,Adams,260-589-2701
5870,31.5642,-91.3532,"505 Highway 61 North, Natchez, MS, 39120",505 Highway 61 North,Natchez,MS,39120,Adams,601-446-7167
1921,39.842,-77.2019,"1310 York Rd, Gettysburg, PA, 17325",1310 York Rd,Gettysburg,PA,17325,Adams,717-337-2812
5575,33.5217,-81.9538,"101 Edgefield Rd, North Augusta, SC, 29841",101 Edgefield Rd,North Augusta,SC,29841,Aiken,803-279-7470
4295,33.5184,-81.7161,"2062 Whiskey Road, Aiken, SC, 29803",2062 Whiskey Road,Aiken,SC,29803,Aiken,803-648-2339
4388,33.5039,-81.8972,"4295 Jefferson Davis Hwy Corner Of Aiken- Augusta Highway, Beech Island, SC, 29842",4295 Jefferson Davis Hwy Corner Of Aiken- Augusta Highway,Beech Island,SC,29842,Aiken,803-593-5196
16653,33.5041,-81.7117,"2545 Whiskey Rd, Aiken, SC, 29803",2545 Whiskey Rd,Aiken,SC,29803,Aiken,803-644-2711
5529,33.5765,-81.7041,"1041 York Street Northeast, Aiken, SC, 29801",1041 York Street Northeast,Aiken,SC,29801,Aiken,803-649-0521
4523,33.5654,-81.7406,"1638 Richland Ave W, Aiken, SC, 29801",1638 Richland Ave W,Aiken,SC,29801,Aiken,803-648-3203
10397,46.5329,-93.7056,"25 2nd Street Northeast, Aitkin, MN, 56431",25 2nd Street Northeast,Aitkin,MN,56431,Aitkin,218-927-3754
1856,29.5994,-82.4218,"7430 Sw Archer Rd, Gainesville, FL, 32608",7430 Sw Archer Rd,Gainesville,FL,32608,Alachua,352-374-2047
4485,29.8317,-82.5958,"19225 Nw Us Highway 441, High Springs, FL, 32643",19225 Nw Us Highway 441,High Springs,FL,32643,Alachua,386-454-3334
1815,29.6745,-82.3894,"4354 Nw 23rd Ave Coner Of North West 43rd Street And North West 23rd Ave, Gainesville, FL, 32606",4354 Nw 23rd Ave Coner Of North West 43rd Street And North West 23rd Ave,Gainesville,FL,32606,Alachua,352-376-4565
10883,29.6491,-82.339,"311 Sw 13th St Unit 101, Gainesville, FL, 32601",311 Sw 13th St Unit 101,Gainesville,FL,32601,Alachua,352-378-7600
571,29.6606,-82.3239,"901 N Main St, Gainesville, FL, 32601",901 N Main St,Gainesville,FL,32601,Alachua,352-376-1278
17701,29.653,-82.3395,"250 Nw 13th St, Gainesville, FL, 32601",250 Nw 13th St,Gainesville,FL,32601,Alachua,352-372-1546
4139,29.7028,-82.3876,"4145 Nw 53rd Avenue, Gainesville, FL, 32653",4145 Nw 53rd Avenue,Gainesville,FL,32653,Alachua,352-371-9329
7178,29.6362,-82.339,"1621 Sw 13th St, Gainesville, FL, 32608",1621 Sw 13th St,Gainesville,FL,32608,Alachua,352-336-3383
5227,29.6534,-82.4967,"14355 W Newberry Rd, Newberry, FL, 32669",14355 W Newberry Rd,Newberry,FL,32669,Alachua,352-331-4639
5160,29.6891,-82.3396,"3904 Nw 13th St, Gainesville, FL, 32609",3904 Nw 13th St,Gainesville,FL,32609,Alachua,352-338-0554
5222,29.7913,-82.4969,"15174 Nw Us Rte 441/Po Box 1385, Alachua, FL, 32615",15174 Nw Us Rte 441/Po Box 1385,Alachua,FL,32615,Alachua,386-462-1323
5832,29.6661,-82.3388,"1515 Nw 13th St, Gainesville, FL, 32601",1515 Nw 13th St,Gainesville,FL,32601,Alachua,352-378-6460
3255,29.6271,-82.3733,"3404 Sw Archer Rd, Gainesville, FL, 32608",3404 Sw Archer Rd,Gainesville,FL,32608,Alachua,352-373-2507
5181,29.631,-82.4218,"2303 Sw 75th St, Gainesville, FL, 32607",2303 Sw 75th St,Gainesville,FL,32607,Alachua,352-332-7115
16208,29.6215,-82.3843,"3970 Sw Archer Rd, Gainesville, FL, 32608",3970 Sw Archer Rd,Gainesville,FL,32608,Alachua,352-377-0939
7053,36.0772,-79.2763,"904 South 5th St, Mebane, NC, 27302",904 South 5th St,Mebane,NC,27302,Alamance,919-563-8855
2532,36.0805,-79.5268,"1149 University Dr, Burlington, NC, 27215",1149 University Dr,Burlington,NC,27215,Alamance,336-584-6041
3853,36.0815,-79.4732,"2344 S Church St, Burlington, NC, 27215",2344 S Church St,Burlington,NC,27215,Alamance,336-227-7442
7559,36.11,-79.465,"2017 W Webb Ave, Burlington, NC, 27217",2017 W Webb Ave,Burlington,NC,27217,Alamance,336-221-8861
17130,36.0655,-79.5209,"1475 University Dr, Burlington, NC, 27215",1475 University Dr,Burlington,NC,27215,Alamance,336-585-1476
4655,36.0631,-79.4011,"401 S Main St, Graham, NC, 27253",401 S Main St,Graham,NC,27253,Alamance,336-229-9191
7515,36.0909,-79.3804,"1009 W Main Street, Haw River, NC, 27258",1009 W Main Street,Haw River,NC,27258,Alamance,336-578-4625
17265,37.6664,-122.1208,"19661 Hesperian Blvd, Hayward, CA, 94541",19661 Hesperian Blvd,Hayward,CA,94541,Alameda,510-731-0002
9941,37.8811,-122.269,"1451 Shattuck Ave, Berkeley, CA, 94709",1451 Shattuck Ave,Berkeley,CA,94709,Alameda,510-849-0484
9250,37.7369,-122.2405,"885 Island Dr Ste A, Alameda, CA, 94502",885 Island Dr Ste A,Alameda,CA,94502,Alameda,510-865-2155
9904,37.6939,-122.0716,"3667 Castro Valley Blvd, Castro Valley, CA, 94546",3667 Castro Valley Blvd,Castro Valley,CA,94546,Alameda,510-538-1227
816,37.6747,-122.0819,"22501 Foothill Blvd, Hayward, CA, 94541",22501 Foothill Blvd,Hayward,CA,94541,Alameda,510-881-9474
9378,37.7981,-122.182,"4100 Redwood Rd, Oakland, CA, 94619",4100 Redwood Rd,Oakland,CA,94619,Alameda,510-531-0602
9929,37.8273,-122.2098,"2000 Mountain Blvd, Oakland, CA, 94611",2000 Mountain Blvd,Oakland,CA,94611,Alameda,510-339-8535
17781,37.8154,-122.2643,"2650 Broadway, Oakland, CA, 94612",2650 Broadway,Oakland,CA,94612,Alameda,510-879-1013
9397,37.6967,-121.7425,"4405 1st St, Livermore, CA, 94551",4405 1st St,Livermore,CA,94551,Alameda,925-373-8124
10121,37.8619,-122.2584,"2655 Telegraph Ave, Berkeley, CA, 94704",2655 Telegraph Ave,Berkeley,CA,94704,Alameda,510-549-9063
16275,37.7013,-121.7468,"4300 Las Positas Rd, Livermore, CA, 94551",4300 Las Positas Rd,Livermore,CA,94551,Alameda,925-245-1406
17628,37.7027,-121.8537,"2800 Dublin Blvd, Dublin, CA, 94568",2800 Dublin Blvd,Dublin,CA,94568,Alameda,925-241-1043
9255,37.784,-122.272,"931 Marina Village Pkwy, Alameda, CA, 94501",931 Marina Village Pkwy,Alameda,CA,94501,Alameda,510-523-3504
9234,37.4922,-121.9275,"46445 Mission Blvd, Fremont, CA, 94539",46445 Mission Blvd,Fremont,CA,94539,Alameda,510-656-2467
9942,37.7236,-122.1564,"1401 Washington Ave, San Leandro, CA, 94577",1401 Washington Ave,San Leandro,CA,94577,Alameda,510-483-2810
16764,37.6993,-122.1266,"15555 E 14th St Ste 400, San Leandro, CA, 94578",15555 E 14th St Ste 400,San Leandro,CA,94578,Alameda,510-276-3979
9600,37.568,-122.0242,"35720 Fremont Blvd, Fremont, CA, 94536",35720 Fremont Blvd,Fremont,CA,94536,Alameda,510-792-4867
9494,37.5511,-122.0472,"35080 Newark Blvd, Newark, CA, 94560",35080 Newark Blvd,Newark,CA,94560,Alameda,510-796-4050
3024,37.7064,-121.9331,"7201 Regional St, Dublin, CA, 94568",7201 Regional St,Dublin,CA,94568,Alameda,925-828-3823
8431,37.7663,-122.1772,"7200 Bancroft Ave, Oakland, CA, 94605",7200 Bancroft Ave,Oakland,CA,94605,Alameda,510-569-2795
331,37.5412,-121.9464,"2000 Driscoll Rd, Fremont, CA, 94539",2000 Driscoll Rd,Fremont,CA,94539,Alameda,510-770-8571
16804,37.6076,-122.0623,"2499 Whipple Rd, Hayward, CA, 94544",2499 Whipple Rd,Hayward,CA,94544,Alameda,510-471-9266
17624,37.8284,-122.2899,"1555 40th Street, Emeryville, CA, 94608",1555 40th Street,Emeryville,CA,94608,Alameda,510-285-0560
9635,37.7232,-122.1527,"1550 East 14th St, San Leandro, CA, 94577",1550 East 14th St,San Leandro,CA,94577,Alameda,510-351-7957
10924,37.6701,-121.8574,"3010 Bernal Avenue, Pleasanton, CA, 94566",3010 Bernal Avenue,Pleasanton,CA,94566,Alameda,925-462-9138
9876,37.6889,-122.1366,"699 Lewelling Blvd, San Leandro, CA, 94579",699 Lewelling Blvd,San Leandro,CA,94579,Alameda,510-351-0951
9226,37.7989,-122.2155,"3320 Fruitvale Ave, Oakland, CA, 94602",3320 Fruitvale Ave,Oakland,CA,94602,Alameda,510-530-3156
9678,37.6801,-121.7781,"1500 1st St, Livermore, CA, 94550",1500 1st St,Livermore,CA,94550,Alameda,925-455-5580
9957,37.8086,-122.2657,"344 Thomas L Berkley Way, Oakland, CA, 94612",344 Thomas L Berkley Way,Oakland,CA,94612,Alameda,510-832-8384
3026,37.8669,-122.2683,"2300 Shattuck Ave, Berkeley, CA, 94704",2300 Shattuck Ave,Berkeley,CA,94704,Alameda,510-549-4255
10199,37.6513,-122.0677,"26059 Mission Blvd, Hayward, CA, 94544",26059 Mission Blvd,Hayward,CA,94544,Alameda,510-886-2207
17712,37.8701,-122.2843,"1414 University Ave, Berkeley, CA, 94702",1414 University Ave,Berkeley,CA,94702,Alameda,510-647-3873
17673,37.8697,-122.2675,"2187 Shattuck Ave, Berkeley, CA, 94704",2187 Shattuck Ave,Berkeley,CA,94704,Alameda,510-982-3727
9099,37.547,-121.9881,"4020 Fremont Hub, Fremont, CA, 94538",4020 Fremont Hub,Fremont,CA,94538,Alameda,510-791-9108
9130,37.8267,-122.2532,"175 41st St, Oakland, CA, 94611",175 41st St,Oakland,CA,94611,Alameda,510-658-3496
17044,37.8828,-122.3065,"1057 Eastshore Hwy, Berkeley, CA, 94710",1057 Eastshore Hwy,Berkeley,CA,94710,Alameda,510-982-0513
10475,37.8184,-122.2622,"2964 Broadway Ave, Oakland, CA, 94611",2964 Broadway Ave,Oakland,CA,94611,Alameda,510-836-7904
9553,37.8339,-122.2811,"4349 San Pablo Ave, Emeryville, CA, 94608",4349 San Pablo Ave,Emeryville,CA,94608,Alameda,510-653-0526
9128,37.7656,-122.2429,"2314 Santa Clara Ave, Alameda, CA, 94501",2314 Santa Clara Ave,Alameda,CA,94501,Alameda,510-523-4929
17592,37.5016,-121.9683,"43950 Pacific Commons Blvd, Fremont, CA, 94538",43950 Pacific Commons Blvd,Fremont,CA,94538,Alameda,510-771-1617
9251,37.6982,-121.8745,"3999 Santa Rita Road, Pleasanton, CA, 94588",3999 Santa Rita Road,Pleasanton,CA,94588,Alameda,925-460-8552
10119,37.6577,-121.8976,"6750 Bernal Ave, Pleasanton, CA, 94566",6750 Bernal Ave,Pleasanton,CA,94566,Alameda,925-249-9011
9595,37.8906,-122.2905,"1382 Solano Ave, Albany, CA, 94706",1382 Solano Ave,Albany,CA,94706,Alameda,510-559-3414
9622,37.6521,-122.0911,"243 W Jackson St, Hayward, CA, 94544",243 W Jackson St,Hayward,CA,94544,Alameda,510-783-0330
17657,37.7888,-122.2794,"2700 5th St, Alameda, CA, 94501",2700 5th St,Alameda,CA,94501,Alameda,510-214-0932
16116,37.7067,-121.9318,"7200 Amador Plaza Rd, Dublin, CA, 94568",7200 Amador Plaza Rd,Dublin,CA,94568,Alameda,925-241-0000
375,42.6256,-73.822,"260 Delaware Avenue, Delmar, NY, 12054",260 Delaware Avenue,Delmar,NY,12054,Albany,518-439-9356
134,42.6536,-73.7732,"16 New Scotland Ave, Albany, NY, 12208",16 New Scotland Ave,Albany,NY,12208,Albany,518-434-0677
16615,42.7052,-73.8241,"1440 Central Ave, Albany, NY, 12205",1440 Central Ave,Albany,NY,12205,Albany,518-489-0233
744,42.6574,-73.8034,"613 New Scotland Avenue, Albany, NY, 12208",613 New Scotland Avenue,Albany,NY,12208,Albany,518-482-4996
1895,42.697,-73.8877,"2040 Western Avenue Route 155, Albany, NY, 12203",2040 Western Avenue Route 155,Albany,NY,12203,Albany,518-869-0249
5047,42.7264,-73.7611,"584 New Loudon Road, Latham, NY, 12110",584 New Loudon Road,Latham,NY,12110,Albany,518-785-8086
413,42.6646,-73.7893,"1026 Madison Avenue, Albany, NY, 12208",1026 Madison Avenue,Albany,NY,12208,Albany,518-489-8516
1090,42.6009,-73.7955,"416 Route 9w, Glenmont, NY, 12077",416 Route 9w,Glenmont,NY,12077,Albany,518-462-5507
417,42.6811,-73.7895,"885 Central Ave, Albany, NY, 12206",885 Central Ave,Albany,NY,12206,Albany,518-459-4550
778,42.6763,-73.8238,"1170 Western Avenue, Albany, NY, 12203",1170 Western Avenue,Albany,NY,12203,Albany,518-459-0795
2743,42.7723,-73.7281,"485 Columbia St, Cohoes, NY, 12047",485 Columbia St,Cohoes,NY,12047,Albany,518-235-7251
600,42.6414,-73.7816,"415-419 Delaware Avenue, Albany, NY, 12209",415-419 Delaware Avenue,Albany,NY,12209,Albany,518-463-2986
5030,42.6835,-73.8386,"Stuyvesant Plaza 1475 Western Ave, Albany, NY, 12203",Stuyvesant Plaza 1475 Western Ave,Albany,NY,12203,Albany,518-482-8759
680,42.6611,-73.7679,"153 Central Avenue, Albany, NY, 12206",153 Central Avenue,Albany,NY,12206,Albany,518-463-1362
2702,42.7165,-73.8118,"465 Sand Creek Rd, Albany, NY, 12205",465 Sand Creek Rd,Albany,NY,12205,Albany,518-482-2835
415,42.7428,-73.7626,"750 Loudon Rd, Latham, NY, 12110",750 Loudon Rd,Latham,NY,12110,Albany,518-785-5878
17033,42.7563,-73.7702,"675 Troy Schenectady Rd, Latham, NY, 12110",675 Troy Schenectady Rd,Latham,NY,12110,Albany,518-782-1360
5037,42.467,-73.8144,"2480 Us Route 9w Ste 3 Faith Plaza, Ravena, NY, 12143",2480 Us Route 9w Ste 3 Faith Plaza,Ravena,NY,12143,Albany,518-756-3157
1554,38.1307,-78.4385,"3420 Seminole Trail, Charlottesville, VA, 22911",3420 Seminole Trail,Charlottesville,VA,22911,Albemarle,434-978-7990
10746,38.0831,-78.474,"1700 Seminole Trail, Charlottesville, VA, 22901",1700 Seminole Trail,Charlottesville,VA,22901,Albemarle,434-245-0003
16978,38.1289,-78.4408,"312 Connor Dr, Charlottesville, VA, 22911",312 Connor Dr,Charlottesville,VA,22911,Albemarle,434-964-0397
1551,38.0357,-78.4596,"1341 Long Street, Charlottesville, VA, 22901",1341 Long Street,Charlottesville,VA,22901,Albemarle,434-296-0156
2007,38.8073,-77.0844,"3120 Duke St, Alexandria, VA, 22314",3120 Duke St,Alexandria,VA,22314,Alexandria city,703-823-3584
1385,38.8307,-77.1258,"1462 Beauregard Street, Alexandria, VA, 22311",1462 Beauregard Street,Alexandria,VA,22311,Alexandria city,703-671-5600
2343,38.8127,-77.1191,"5101 Duke Street, Alexandria, VA, 22304",5101 Duke Street,Alexandria,VA,22304,Alexandria city,703-823-7430
10900,38.8013,-77.0738,"2441 Eisenhower Ave, Alexandria, VA, 22314",2441 Eisenhower Ave,Alexandria,VA,22314,Alexandria city,571-970-2410
1373,38.8007,-77.0483,"433 South Washington Street, Alexandria, VA, 22314",433 South Washington Street,Alexandria,VA,22314,Alexandria city,703-836-7668
1384,38.8115,-77.1336,"259 South Van Dorn Street, Alexandria, VA, 22304",259 South Van Dorn Street,Alexandria,VA,22304,Alexandria city,703-370-4206
10876,38.8039,-77.0594,"1680 Duke St, Alexandria, VA, 22314",1680 Duke St,Alexandria,VA,22314,Alexandria city,703-706-5783
1408,38.829,-77.1095,"4606 Kenmore Avenue, Alexandria, VA, 22304",4606 Kenmore Avenue,Alexandria,VA,22304,Alexandria city,703-370-6440
1410,38.8205,-77.0548,"415 Monroe Avenue, Alexandria, VA, 22301",415 Monroe Avenue,Alexandria,VA,22301,Alexandria city,703-683-4433
16456,38.8344,-77.0495,"3101 Richmond Hwy, Alexandria, VA, 22305",3101 Richmond Hwy,Alexandria,VA,22305,Alexandria city,703-706-3852
2149,38.8051,-77.0449,"501 King Street, Alexandria, VA, 22314",501 King Street,Alexandria,VA,22314,Alexandria city,703-548-8357
1382,38.8292,-77.0857,"1521-1523 North Quaker Lane, Alexandria, VA, 22302",1521-1523 North Quaker Lane,Alexandria,VA,22302,Alexandria city,703-998-6560
4044,39.6521,-78.7603,"133 Baltimore St, Cumberland, MD, 21502",133 Baltimore St,Cumberland,MD,21502,Allegany,301-724-5025
5728,39.6383,-78.8307,"1202 National Hwy, Cumberland, MD, 21502",1202 National Hwy,Cumberland,MD,21502,Allegany,301-729-1004
6321,37.8164,-79.8093,"1610 Main Street, Clifton Forge, VA, 24422",1610 Main Street,Clifton Forge,VA,24422,Alleghany,540-862-4223
6326,37.781,-79.9899,"1017 S Craig Ave, Covington, VA, 24426",1017 S Craig Ave,Covington,VA,24426,Alleghany,540-962-3951
4002,40.442,-80.0701,"70 W Steuben St Crafton-Ingram Shopping Center, Pittsburgh, PA, 15205",70 W Steuben St Crafton-Ingram Shopping Center,Pittsburgh,PA,15205,Allegheny,412-921-2060
4103,40.4935,-80.0524,"355 Lincoln Avenue, Pittsburgh, PA, 15202",355 Lincoln Avenue,Pittsburgh,PA,15202,Allegheny,412-761-3000
17336,40.6418,-79.9419,"550 Grandview Crossing Dr, Gibsonia, PA, 15044",550 Grandview Crossing Dr,Gibsonia,PA,15044,Allegheny,724-799-2238
7611,40.5995,-79.9478,"4849 William Flynn Hwy, Allison Park, PA, 15101",4849 William Flynn Hwy,Allison Park,PA,15101,Allegheny,724-443-2418
4003,40.351,-79.8644,"311 5th Ave, Mckeesport, PA, 15132",311 5th Ave,Mckeesport,PA,15132,Allegheny,412-678-6769
2449,40.6214,-80.0539,"11240 Perry Highway Route 19, Wexford, PA, 15090",11240 Perry Highway Route 19,Wexford,PA,15090,Allegheny,724-935-7890
16572,40.4465,-80.1836,"600 Chauvet Dr, Pittsburgh, PA, 15275",600 Chauvet Dr,Pittsburgh,PA,15275,Allegheny,412-490-0802
4133,40.4438,-79.8865,"520 Penn Ave, Pittsburgh, PA, 15221",520 Penn Ave,Pittsburgh,PA,15221,Allegheny,412-243-6048
10767,40.414,-79.9227,"4664 Browns Hill Rd, Pittsburgh, PA, 15217",4664 Browns Hill Rd,Pittsburgh,PA,15217,Allegheny,412-521-3059
5100,40.4394,-79.9994,"429 Smithfield St, Pittsburgh, PA, 15222",429 Smithfield St,Pittsburgh,PA,15222,Allegheny,412-261-4846
2333,40.3432,-79.9705,"5242 Clairton Boulevard, Pittsburgh, PA, 15236",5242 Clairton Boulevard,Pittsburgh,PA,15236,Allegheny,412-885-5864
17279,40.5262,-80.0079,"4801 Mcknight Rd Ste 3, Pittsburgh, PA, 15237",4801 Mcknight Rd Ste 3,Pittsburgh,PA,15237,Allegheny,412-536-1808
16601,40.4105,-79.91,"360 Waterfront Dr E, Homestead, PA, 15120",360 Waterfront Dr E,Homestead,PA,15120,Allegheny,412-464-2623
4152,40.4438,-79.9276,"5600 Wilkins Ave, Pittsburgh, PA, 15217",5600 Wilkins Ave,Pittsburgh,PA,15217,Allegheny,412-521-5690
4051,40.3465,-80.0554,"1740 Washington Rd, Pittsburgh, PA, 15241",1740 Washington Rd,Pittsburgh,PA,15241,Allegheny,412-833-0545
17618,40.4609,-79.9215,"6231 Penn Ave, Pittsburgh, PA, 15206",6231 Penn Ave,Pittsburgh,PA,15206,Allegheny,412-626-3259
4045,40.4391,-79.7411,"1775 Golden Mile Hwy, Monroeville, PA, 15146",1775 Golden Mile Hwy,Monroeville,PA,15146,Allegheny,724-327-0142
4091,40.4216,-79.8892,"7406 Church Street, Pittsburgh, PA, 15218",7406 Church Street,Pittsburgh,PA,15218,Allegheny,412-271-6733
2348,40.4393,-79.9596,"3422 Forbes Avenue, Pittsburgh, PA, 15213",3422 Forbes Avenue,Pittsburgh,PA,15213,Allegheny,412-687-4181
16573,40.585,-80.0408,"9805 Mcknight Rd, Pittsburgh, PA, 15237",9805 Mcknight Rd,Pittsburgh,PA,15237,Allegheny,412-369-9446
4369,40.4517,-79.9515,"4610 Centre Ave, Pittsburgh, PA, 15213",4610 Centre Ave,Pittsburgh,PA,15213,Allegheny,412-683-8827
3999,40.4102,-80.0822,"401 Chestnut St, Carnegie, PA, 15106",401 Chestnut St,Carnegie,PA,15106,Allegheny,412-279-5020
2447,40.3341,-80.0246,"5190 Library Road, Bethel Park, PA, 15102",5190 Library Road,Bethel Park,PA,15102,Allegheny,412-833-6029
4085,40.4607,-79.9238,"6100 Penn Ave, Pittsburgh, PA, 15206",6100 Penn Ave,Pittsburgh,PA,15206,Allegheny,412-362-0575
7612,40.4063,-79.8232,"237 Monroeville Ave, Turtle Creek, PA, 15145",237 Monroeville Ave,Turtle Creek,PA,15145,Allegheny,412-824-5137
17165,40.5356,-80.0686,"288 Mt Nebo Pointe Dr, Pittsburgh, PA, 15237",288 Mt Nebo Pointe Dr,Pittsburgh,PA,15237,Allegheny,412-536-8201
258,40.4514,-80.1341,"5703 Steubenville Pike, Mc Kees Rocks, PA, 15136",5703 Steubenville Pike,Mc Kees Rocks,PA,15136,Allegheny,412-788-4676
4008,40.4408,-80.001,"242-250 Fifth Ave, Pittsburgh, PA, 15222",242-250 Fifth Ave,Pittsburgh,PA,15222,Allegheny,412-566-2619
5103,40.6229,-79.7243,"1003 California Ave, Natrona Heights, PA, 15065",1003 California Ave,Natrona Heights,PA,15065,Allegheny,724-224-7772
4070,40.4605,-79.8422,"10600 Frankstown Rd, Pittsburgh, PA, 15235",10600 Frankstown Rd,Pittsburgh,PA,15235,Allegheny,412-241-3348
17638,40.3441,-80.0591,"201 S Hills Vlg, Pittsburgh, PA, 15241",201 S Hills Vlg,Pittsburgh,PA,15241,Allegheny,412-595-9381
16617,40.3482,-79.9539,"1717 Lebanon Church Rd, Pittsburgh, PA, 15236",1717 Lebanon Church Rd,Pittsburgh,PA,15236,Allegheny,412-502-0021
10034,40.5682,-80.0236,"611 Duncan Ave, Pittsburgh, PA, 15237",611 Duncan Ave,Pittsburgh,PA,15237,Allegheny,412-358-8690
4144,40.3915,-80.0383,"3075 W Liberty Ave, Pittsburgh, PA, 15216",3075 W Liberty Ave,Pittsburgh,PA,15216,Allegheny,412-341-2269
17448,40.5384,-79.8366,"2661 Freeport Rd, Pittsburgh, PA, 15238",2661 Freeport Rd,Pittsburgh,PA,15238,Allegheny,412-820-6781
5890,40.4378,-79.779,"3893 William Penn Hwy, Monroeville, PA, 15146",3893 William Penn Hwy,Monroeville,PA,15146,Allegheny,412-372-4079
5094,40.3826,-80.0519,"328 Cochran Rd, Pittsburgh, PA, 15228",328 Cochran Rd,Pittsburgh,PA,15228,Allegheny,412-563-3444
3189,40.3957,-80.0236,"510 Brookline Blvd, Pittsburgh, PA, 15226",510 Brookline Blvd,Pittsburgh,PA,15226,Allegheny,412-531-2190
5369,41.1009,-85.0607,"6279 E State Blvd On The Corner Of State And Maplecrest, Fort Wayne, IN, 46815",6279 E State Blvd On The Corner Of State And Maplecrest,Fort Wayne,IN,46815,Allen,260-492-0951
6509,41.0967,-85.1029,"2802 East State Boulevard, Fort Wayne, IN, 46805",2802 East State Boulevard,Fort Wayne,IN,46805,Allen,260-471-5521
6496,41.0692,-85.0296,"115 State Road 930 E, New Haven, IN, 46774",115 State Road 930 E,New Haven,IN,46774,Allen,260-493-1514
17051,41.1227,-85.0634,"6119 Stellhorn Rd, Fort Wayne, IN, 46815",6119 Stellhorn Rd,Fort Wayne,IN,46815,Allen,260-485-4697
6323,41.2126,-85.0186,"13821 Leo Rd, Leo, IN, 46765",13821 Leo Rd,Leo,IN,46765,Allen,260-627-8616
10190,41.178,-85.1316,"770 E Dupont Rd, Fort Wayne, IN, 46825",770 E Dupont Rd,Fort Wayne,IN,46825,Allen,260-451-8242
17294,41.1117,-85.1388,"3801 Coldwater Rd, Fort Wayne, IN, 46805",3801 Coldwater Rd,Fort Wayne,IN,46805,Allen,260-470-6361
6479,41.1912,-85.1661,"1703 Carroll Rd, Fort Wayne, IN, 46845",1703 Carroll Rd,Fort Wayne,IN,46845,Allen,260-338-0834
6527,41.1346,-85.063,"6220 St Joseph Center Rd, Fort Wayne, IN, 46835",6220 St Joseph Center Rd,Fort Wayne,IN,46835,Allen,260-485-7998
6522,41.0582,-85.2188,"2811 Getz Road, Fort Wayne, IN, 46804",2811 Getz Road,Fort Wayne,IN,46804,Allen,260-432-6151
6519,41.0314,-85.1135,"5802 South Anthony Blvd, Fort Wayne, IN, 46816",5802 South Anthony Blvd,Fort Wayne,IN,46816,Allen,260-456-5518
6520,41.0494,-85.1378,"3918 South Calhoun St, Fort Wayne, IN, 46807",3918 South Calhoun St,Fort Wayne,IN,46807,Allen,260-744-2310
6510,41.1462,-85.1634,"7330 Lima Road Corner Of Lima And Cook, Fort Wayne, IN, 46818",7330 Lima Road Corner Of Lima And Cook,Fort Wayne,IN,46818,Allen,260-489-6064
6737,41.1187,-85.1001,"4225 Hobson Rd, Fort Wayne, IN, 46805",4225 Hobson Rd,Fort Wayne,IN,46805,Allen,260-422-7510
17496,41.0764,-85.204,"1102 S Thomas Rd, Fort Wayne, IN, 46804",1102 S Thomas Rd,Fort Wayne,IN,46804,Allen,260-434-4581
5696,41.0749,-85.2742,"10170 Illinois Rd, Fort Wayne, IN, 46804",10170 Illinois Rd,Fort Wayne,IN,46804,Allen,260-436-6021
11213,40.8939,-83.8907,"126 N Main Street, Bluffton, OH, 45817",126 N Main Street,Bluffton,OH,45817,Allen,419-369-4019
4445,40.6866,-84.1546,"2620 West Breese Road, Lima, OH, 45806",2620 West Breese Road,Lima,OH,45806,Allen,419-991-0010
4447,40.737,-84.0905,"900 Bellefontaine Rd, Lima, OH, 45804",900 Bellefontaine Rd,Lima,OH,45804,Allen,419-227-7970
9233,38.3437,-120.7702,"515 S State Highway 49, Jackson, CA, 95642",515 S State Highway 49,Jackson,CA,95642,Amador,209-223-3784
7002,37.5884,-79.0507,"112 S Main St / Po Box 1017, Amherst, VA, 24521",112 S Main St / Po Box 1017,Amherst,VA,24521,Amherst,434-946-2702
3509,37.439,-79.121,"4861 Amherst Hwy Po Box 570, Madison Heights, VA, 24572",4861 Amherst Hwy Po Box 570,Madison Heights,VA,24572,Amherst,434-845-5991
5536,34.5208,-82.4918,"222 South Main St, Belton, SC, 29627",222 South Main St,Belton,SC,29627,Anderson,864-338-6996
3599,34.633,-82.7839,"7647 Highway 76, Pendleton, SC, 29670",7647 Highway 76,Pendleton,SC,29670,Anderson,864-646-7553
3541,34.4738,-82.6529,"109 Highway 28 By-Pass And South Murry Avenue, Anderson, SC, 29624",109 Highway 28 By-Pass And South Murry Avenue,Anderson,SC,29624,Anderson,864-296-9734
7538,34.4448,-82.3857,"408-B East Greer Street, Honea Path, SC, 29654",408-B East Greer Street,Honea Path,SC,29654,Anderson,864-369-2822
3838,34.5271,-82.6381,"1405 East Greenville Street, Anderson, SC, 29621",1405 East Greenville Street,Anderson,SC,29621,Anderson,864-224-8797
16555,34.5494,-82.6801,"3519 Clemson Blvd, Anderson, SC, 29621",3519 Clemson Blvd,Anderson,SC,29621,Anderson,864-224-3972
3571,34.6435,-82.4667,"1 Main Street, Pelzer, SC, 29669",1 Main Street,Pelzer,SC,29669,Anderson,864-947-6253
3846,34.4992,-82.681,"922 Highway 28 By-Pass, Anderson, SC, 29625",922 Highway 28 By-Pass,Anderson,SC,29625,Anderson,864-224-7469
4111,34.5323,-82.6632,"2814 N Main St, Anderson, SC, 29621",2814 N Main St,Anderson,SC,29621,Anderson,864-224-3562
3723,36.0148,-84.2527,"1287 Oak Ridge Turnpike, Oak Ridge, TN, 37830",1287 Oak Ridge Turnpike,Oak Ridge,TN,37830,Anderson,865-483-4394
6365,36.0994,-84.1314,"101 N Charles Seivers Blvd, Clinton, TN, 37716",101 N Charles Seivers Blvd,Clinton,TN,37716,Anderson,865-457-9358
6918,31.7363,-95.6083,"1919 S Loop 256, Palestine, TX, 75801",1919 S Loop 256,Palestine,TX,75801,Anderson,903-729-6055
273,44.1016,-70.1929,"446 Sabattus St, Lewiston, ME, 04240",446 Sabattus St,Lewiston,ME,4240,Androscoggin,207-783-3784
156,44.0851,-70.2034,"10 East Ave Lewiston S/C, Lewiston, ME, 04240",10 East Ave Lewiston S/C,Lewiston,ME,4240,Androscoggin,207-783-9134
2382,44.0985,-70.2319,"8 Union Street, Auburn, ME, 04210",8 Union Street,Auburn,ME,4210,Androscoggin,207-784-9101
6827,31.338,-94.739,"923 W Frank St, Lufkin, TX, 75904",923 W Frank St,Lufkin,TX,75904,Angelina,936-634-4449
6846,31.3369,-94.7214,"1204 E Lufkin Ave, Lufkin, TX, 75901",1204 E Lufkin Ave,Lufkin,TX,75901,Angelina,936-634-3344
4418,39.1567,-76.5158,"8501 Fort Smallwood Rd, Pasadena, MD, 21122",8501 Fort Smallwood Rd,Pasadena,MD,21122,Anne Arundel,410-437-1149
1510,39.1287,-76.7346,"2600 Annapolis Rd, Severn, MD, 21144",2600 Annapolis Rd,Severn,MD,21144,Anne Arundel,410-799-2150
5926,38.9774,-76.4886,"123 Main St, Annapolis, MD, 21401",123 Main St,Annapolis,MD,21401,Anne Arundel,410-295-3061
16396,39.0966,-76.8102,"3343 Corridor Marketplace, Laurel, MD, 20724",3343 Corridor Marketplace,Laurel,MD,20724,Anne Arundel,301-483-0949
2010,39.0791,-76.6841,"1102 Annapolis Rd, Odenton, MD, 21113",1102 Annapolis Rd,Odenton,MD,21113,Anne Arundel,410-674-8338
17055,39.1903,-76.6099,"6717 Ritchie Hwy, Glen Burnie, MD, 21061",6717 Ritchie Hwy,Glen Burnie,MD,21061,Anne Arundel,410-487-0039
5706,39.1985,-76.6411,"7095 Baltimore Annapolis Rd, Glen Burnie, MD, 21061",7095 Baltimore Annapolis Rd,Glen Burnie,MD,21061,Anne Arundel,410-859-3113
6765,39.0185,-76.6935,"2003 Davidsonville Rd, Crofton, MD, 21114",2003 Davidsonville Rd,Crofton,MD,21114,Anne Arundel,410-721-3762
17345,38.9822,-76.5414,"1911 Towne Centre Blvd, Annapolis, MD, 21401",1911 Towne Centre Blvd,Annapolis,MD,21401,Anne Arundel,443-837-3541
2775,38.9837,-76.5408,"2601 Riva Rd, Annapolis, MD, 21401",2601 Riva Rd,Annapolis,MD,21401,Anne Arundel,410-571-2090
10564,39.1541,-76.7436,"7706 Milestone Parkway, Hanover, MD, 21076",7706 Milestone Parkway,Hanover,MD,21076,Anne Arundel,410-799-2020
1735,39.1673,-76.6229,"7400 Ritchie Highway, Glen Burnie, MD, 21061",7400 Ritchie Highway,Glen Burnie,MD,21061,Anne Arundel,410-760-2112
3045,39.0997,-76.5653,"157 Ritchie Highway, Severna Park, MD, 21146",157 Ritchie Highway,Severna Park,MD,21146,Anne Arundel,410-421-5050
4225,38.9468,-76.4872,"975 Bay Ridge Rd Bay Bridge Shopping Center, Annapolis, MD, 21403",975 Bay Ridge Rd Bay Bridge Shopping Center,Annapolis,MD,21403,Anne Arundel,410-268-7688
17594,39.0353,-76.6822,"2384 Brandermill Blvd, Gambrills, MD, 21054",2384 Brandermill Blvd,Gambrills,MD,21054,Anne Arundel,443-302-6279
2883,39.136,-76.6853,"7851 Telegraph Rd, Severn, MD, 21144",7851 Telegraph Rd,Severn,MD,21144,Anne Arundel,410-551-5141
4017,39.1197,-76.518,"28 Magothy Beach Rd, Pasadena, MD, 21122",28 Magothy Beach Rd,Pasadena,MD,21122,Anne Arundel,410-437-6450
2779,38.9661,-76.5152,"503 S Cherry Grove Ave, Annapolis, MD, 21401",503 S Cherry Grove Ave,Annapolis,MD,21401,Anne Arundel,443-482-3981
5733,39.1172,-76.635,"8124 Veterans Hwy, Millersville, MD, 21108",8124 Veterans Hwy,Millersville,MD,21108,Anne Arundel,410-987-5244
3043,39.0285,-76.5042,"1500 Ritchie Highway Swc, Arnold, MD, 21012",1500 Ritchie Highway Swc,Arnold,MD,21012,Anne Arundel,410-757-3902
2033,38.9434,-76.5603,"3025 Solomons Island Rd, Edgewater, MD, 21037",3025 Solomons Island Rd,Edgewater,MD,21037,Anne Arundel,410-798-8715
16392,39.1327,-76.6339,"7951 Nolpark Ct, Glen Burnie, MD, 21061",7951 Nolpark Ct,Glen Burnie,MD,21061,Anne Arundel,410-969-2389
7152,45.1671,-93.2115,"2357 108th Lane Ne, Minneapolis, MN, 55449",2357 108th Lane Ne,Minneapolis,MN,55449,Anoka,763-780-0776
17118,45.2167,-93.3164,"2000 Bunker Lake Blvd Nw, Andover, MN, 55304",2000 Bunker Lake Blvd Nw,Andover,MN,55304,Anoka,763-852-0114
5997,45.1619,-93.3187,"2017 Coon Rapids Blvd, Minneapolis, MN, 55433",2017 Coon Rapids Blvd,Minneapolis,MN,55433,Anoka,763-757-5615
8930,45.1979,-93.3788,"657 E Main St, Anoka, MN, 55303",657 E Main St,Anoka,MN,55303,Anoka,763-427-2287
16780,45.185,-93.105,"749 Apollo Dr, Circle Pines, MN, 55014",749 Apollo Dr,Circle Pines,MN,55014,Anoka,651-784-7618
16267,45.1272,-93.269,"8600 Springbrook Dr Nw, Minneapolis, MN, 55433",8600 Springbrook Dr Nw,Minneapolis,MN,55433,Anoka,763-785-0720
1303,45.1694,-93.267,"10930 University Ave Nw, Minneapolis, MN, 55448",10930 University Ave Nw,Minneapolis,MN,55448,Anoka,763-755-6316
16953,45.1652,-93.2326,"1500 109th Ave Ne, Minneapolis, MN, 55449",1500 109th Ave Ne,Minneapolis,MN,55449,Anoka,763-354-1001
17278,45.0658,-93.2517,"755 53rd Ave Ne, Minneapolis, MN, 55421",755 53rd Ave Ne,Minneapolis,MN,55421,Anoka,763-571-9766
7110,45.2202,-93.3582,"3633 Bunker Lake Blvd Nw, Andover, MN, 55304",3633 Bunker Lake Blvd Nw,Andover,MN,55304,Anoka,763-421-5011
8435,45.0709,-93.2645,"5696 University Ave, Minneapolis, MN, 55432",5696 University Ave,Minneapolis,MN,55432,Anoka,763-571-2081
16508,45.1944,-93.35,"3300 124th Ave Nw, Minneapolis, MN, 55433",3300 124th Ave Nw,Minneapolis,MN,55433,Anoka,763-323-8402
3815,34.9631,-80.0577,"1156 E Caswell Street, Wadesboro, NC, 28170",1156 E Caswell Street,Wadesboro,NC,28170,Anson,704-694-2153
7294,31.7789,-82.348,"19 E Parker St, Baxley, GA, 31513",19 E Parker St,Baxley,GA,31513,Appling,912-367-7024
3515,37.3638,-78.8449,"7738 Richmond Highway, Appomattox, VA, 24522",7738 Richmond Highway,Appomattox,VA,24522,Appomattox,434-352-5213
10926,28.0454,-97.0428,"2207-A Highway 35 North, Rockport, TX, 78382",2207-A Highway 35 North,Rockport,TX,78382,Aransas,361-729-5545
16033,39.5929,-104.8819,"6767 S Clinton St, Englewood, CO, 80112",6767 S Clinton St,Englewood,CO,80112,Arapahoe,303-566-0005
16074,39.6362,-104.7904,"16910 E Quincy Ave, Aurora, CO, 80015",16910 E Quincy Ave,Aurora,CO,80015,Arapahoe,303-680-3284
17092,39.5813,-104.7217,"7400 S Gartrell Rd, Aurora, CO, 80016",7400 S Gartrell Rd,Aurora,CO,80016,Arapahoe,303-209-2828
17511,39.5916,-104.8044,"15700 E Briarwood Cir, Aurora, CO, 80016",15700 E Briarwood Cir,Aurora,CO,80016,Arapahoe,720-214-6001
16751,39.6912,-104.8634,"1400 S Havana St, Aurora, CO, 80012",1400 S Havana St,Aurora,CO,80012,Arapahoe,303-755-6614
17335,39.6501,-105.0055,"3650 Riverpoint Pkwy, Englewood, CO, 80110",3650 Riverpoint Pkwy,Englewood,CO,80110,Arapahoe,303-974-6662
16803,39.7159,-104.8216,"14200 E Ellsworth Ave, Aurora, CO, 80012",14200 E Ellsworth Ave,Aurora,CO,80012,Arapahoe,303-214-0115
4081,18.4844,-66.7694,"Carr Pr-2 Km776 Barrio Halto Abajo, Arecibo, PR, 00612",Carr Pr-2 Km776 Barrio Halto Abajo,Arecibo,PR,612,Arecibo Municipio,787-880-4240
2418,38.8909,-77.0852,"2121 15th St N, Arlington, VA, 22201",2121 15th St N,Arlington,VA,22201,Arlington,703-243-4239
11229,38.859,-77.049,"1550 Crystal Dr Suite C, Arlington, VA, 22202",1550 Crystal Dr Suite C,Arlington,VA,22202,Arlington,571-227-7685
17678,38.8944,-77.0744,"1500 Wilson Blvd, Arlington, VA, 22209",1500 Wilson Blvd,Arlington,VA,22209,Arlington,571-777-2439
1375,38.8559,-77.1134,"5017 Columbia Pike, Arlington, VA, 22204",5017 Columbia Pike,Arlington,VA,22204,Arlington,703-671-2331
1833,38.8797,-77.1102,"4238 Wilson Blvd/Ballston Commons 1831, Arlington, VA, 22203",4238 Wilson Blvd/Ballston Commons 1831,Arlington,VA,22203,Arlington,703-243-5944
1884,38.8735,-77.1051,"256 North Glebe Road, Arlington, VA, 22203",256 North Glebe Road,Arlington,VA,22203,Arlington,703-522-1202
2750,38.8629,-77.0603,"1201 South Hayes St Suite C, Arlington, VA, 22202",1201 South Hayes St Suite C,Arlington,VA,22202,Arlington,703-418-3790
17752,38.8793,-77.1136,"740 N Glebe Rd, Arlington, VA, 22203",740 N Glebe Rd,Arlington,VA,22203,Arlington,571-357-6258
2712,38.87,-77.0567,"Room 2b1080 The Pentagon Main Concourse, Arlington, VA, 22202",Room 2b1080 The Pentagon Main Concourse,Arlington,VA,22202,Arlington,703-271-3220
1380,38.8985,-77.1221,"4709-A Lee Highway, Arlington, VA, 22207",4709-A Lee Highway,Arlington,VA,22207,Arlington,703-522-0011
1835,38.8957,-77.1383,"5402 Lee Highway Lee Harrison S/C, Arlington, VA, 22207",5402 Lee Highway Lee Harrison S/C,Arlington,VA,22207,Arlington,703-237-5373
1372,38.9002,-77.156,"6404 Williamsburg Boulevard, Arlington, VA, 22207",6404 Williamsburg Boulevard,Arlington,VA,22207,Arlington,703-532-4121
11191,38.8407,-77.0885,"4060 Campbell Ave, Arlington, VA, 22206",4060 Campbell Ave,Arlington,VA,22206,Arlington,703-236-0432
2142,38.8632,-77.0853,"2601 Columbia Turnpike, Arlington, VA, 22204",2601 Columbia Turnpike,Arlington,VA,22204,Arlington,703-271-7910
1407,38.8965,-77.0969,"3133 Lee Highway Lyons Village Shopping Center, Arlington, VA, 22201",3133 Lee Highway Lyons Village Shopping Center,Arlington,VA,22201,Arlington,703-522-0260
2274,38.8838,-77.0932,"3141 Wilson Blvd Clarendon Metro, Arlington, VA, 22201",3141 Wilson Blvd Clarendon Metro,Arlington,VA,22201,Arlington,703-524-2635
1421,38.8945,-77.0705,"1100 Wilson Boulevard, Arlington, VA, 22209",1100 Wilson Boulevard,Arlington,VA,22209,Arlington,703-243-0036
2491,38.8521,-77.0532,"2400 Jefferson Davis Hwy, Arlington, VA, 22202",2400 Jefferson Davis Hwy,Arlington,VA,22202,Arlington,703-418-0813
5278,30.0991,-90.9967,"20 West Tenth St, Donaldsonville, LA, 70346",20 West Tenth St,Donaldsonville,LA,70346,Ascension Parish,225-473-8132
5354,30.2471,-90.9205,"1624 N Burnside, Gonzales, LA, 70737",1624 N Burnside,Gonzales,LA,70737,Ascension Parish,225-644-7528
1661,30.3199,-90.9773,"17122 Airline Hwy, Prairieville, LA, 70769",17122 Airline Hwy,Prairieville,LA,70769,Ascension Parish,225-673-9971
7315,36.3815,-81.4853,"2 Crescent Dr / Po Box 1701, West Jefferson, NC, 28694",2 Crescent Dr / Po Box 1701,West Jefferson,NC,28694,Ashe,336-246-2790
6167,40.8682,-82.3069,"418 East Main Street, Ashland, OH, 44805",418 East Main Street,Ashland,OH,44805,Ashland,419-281-0525
3169,41.8064,-80.9448,"170 East Main St, Geneva, OH, 44041",170 East Main St,Geneva,OH,44041,Ashtabula,440-466-4133
3362,41.8778,-80.7558,"1819 East Prospect Road, Ashtabula, OH, 44004",1819 East Prospect Road,Ashtabula,OH,44004,Ashtabula,440-998-2216
4331,41.9438,-80.5604,"380 State St, Conneaut, OH, 44030",380 State St,Conneaut,OH,44030,Ashtabula,440-593-6214
10843,29.2341,-98.7898,"19244 Mcdonald St, Lytle, TX, 78052",19244 Mcdonald St,Lytle,TX,78052,Atascosa,830-772-3404
5889,39.558,-95.1267,"400 South 10th St, Atchison, KS, 66002",400 South 10th St,Atchison,KS,66002,Atchison,913-367-1518
6184,39.3371,-82.0787,"555 E State St, Athens, OH, 45701",555 E State St,Athens,OH,45701,Athens,740-593-8501
6193,39.3286,-82.1009,"32 S Court St, Athens, OH, 45701",32 S Court St,Athens,OH,45701,Athens,740-592-6024
336,39.4079,-74.5192,"900 N New Rd, Pleasantville, NJ, 08232",900 N New Rd,Pleasantville,NJ,8232,Atlantic,609-272-3002
1526,39.4823,-74.5821,"328 W White Horse Pike Po 278, Pomona, NJ, 08240",328 W White Horse Pike Po 278,Pomona,NJ,8240,Atlantic,609-965-8170
16482,39.4514,-74.6341,"380 Consumer Sq, Mays Landing, NJ, 08330",380 Consumer Sq,Mays Landing,NJ,8330,Atlantic,609-645-8612
825,39.3456,-74.481,"315 North Dorset Ave Dorset Plaza, Ventnor City, NJ, 08406",315 North Dorset Ave Dorset Plaza,Ventnor City,NJ,8406,Atlantic,609-822-1500
1033,39.4936,-74.4584,"1 S New York Rd Village Shops, Absecon, NJ, 08205",1 S New York Rd Village Shops,Absecon,NJ,8205,Atlantic,609-748-0717
6877,39.4192,-74.6177,"6103 W Jersey Ave, Egg Harbor Township, NJ, 08234",6103 W Jersey Ave,Egg Harbor Township,NJ,8234,Atlantic,609-484-5918
2462,39.3305,-74.5952,"191 New Rd, Somers Point, NJ, 08244",191 New Rd,Somers Point,NJ,8244,Atlantic,609-601-3001
1287,39.4477,-74.7346,"6056 Harding Hwy Suite D, Mays Landing, NJ, 08330",6056 Harding Hwy Suite D,Mays Landing,NJ,8330,Atlantic,609-625-5553
2853,39.4647,-74.4943,"327 S Pitney Rd, Absecon, NJ, 08205",327 S Pitney Rd,Absecon,NJ,8205,Atlantic,609-404-2201
1061,39.4325,-74.5128,"603 White Horse Pike, Absecon, NJ, 08201",603 White Horse Pike,Absecon,NJ,8201,Atlantic,609-641-8661
7096,39.3949,-74.3878,"3313 Brigantine Blvd, Brigantine, NJ, 08203",3313 Brigantine Blvd,Brigantine,NJ,8203,Atlantic,609-266-3260
853,39.3225,-74.5142,"9301 Ventnor Avenue, Margate City, NJ, 08402",9301 Ventnor Avenue,Margate City,NJ,8402,Atlantic,609-822-3222
809,39.3915,-74.5592,"6815 Tilton Road, Egg Harbor Township, NJ, 08234",6815 Tilton Road,Egg Harbor Township,NJ,8234,Atlantic,609-645-2902
472,39.3615,-74.4305,"New Yorkatlantic Avs/10 Renaissanceplz, Atlantic City, NJ, 08401",New Yorkatlantic Avs/10 Renaissanceplz,Atlantic City,NJ,8401,Atlantic,609-345-7418
5883,33.0662,-89.5909,"108 Hwy 12 East, Kosciusko, MS, 39090",108 Hwy 12 East,Kosciusko,MS,39090,Attala,662-289-1963
5666,40.5649,-84.1793,"1101 Bellefontaine St, Wapakoneta, OH, 45895",1101 Bellefontaine St,Wapakoneta,OH,45895,Auglaize,419-738-8926
8388,29.7756,-96.1557,"802 Meyer Street, Sealy, TX, 77474",802 Meyer Street,Sealy,TX,77474,Austin,979-885-3538
17348,32.4571,-86.3995,"2754 Legends Pkwy, Prattville, AL, 36066",2754 Legends Pkwy,Prattville,AL,36066,Autauga,334-290-6001
4838,32.4597,-86.4545,"708 E Main St, Prattville, AL, 36067",708 E Main St,Prattville,AL,36067,Autauga,334-365-0661
4944,32.4602,-86.4177,"1904 Cobbs Ford Rd, Prattville, AL, 36066",1904 Cobbs Ford Rd,Prattville,AL,36066,Autauga,334-365-7606
5558,36.0857,-81.9276,"325 Pineola Street/Po Box 552, Newland, NC, 28657",325 Pineola Street/Po Box 552,Newland,NC,28657,Avery,828-733-6026
5306,31.1242,-92.0701,"120 Tunica Dr East, Marksville, LA, 71351",120 Tunica Dr East,Marksville,LA,71351,Avoyelles Parish,318-253-6519
7980,30.2827,-82.1243,"121 W Macclenny Ave, Macclenny, FL, 32063",121 W Macclenny Ave,Macclenny,FL,32063,Baker,904-259-6380
4945,30.5226,-87.8848,"51 S Greeno Rd, Fairhope, AL, 36532",51 S Greeno Rd,Fairhope,AL,36532,Baldwin,251-928-3125
1806,30.3917,-87.6842,"1300 South Mckenzie St, Foley, AL, 36535",1300 South Mckenzie St,Foley,AL,36535,Baldwin,251-943-6614
4959,30.6189,-87.9045,"27040 Hwy 98, Daphne, AL, 36526",27040 Hwy 98,Daphne,AL,36526,Baldwin,251-621-9096
16621,30.6029,-87.896,"1698 Us Highway 98, Daphne, AL, 36526",1698 Us Highway 98,Daphne,AL,36526,Baldwin,251-626-5739
2899,30.2697,-87.5884,"25761 Perdido Beach Blvd, Orange Beach, AL, 36561",25761 Perdido Beach Blvd,Orange Beach,AL,36561,Baldwin,251-974-1590
4938,30.8848,-87.7746,"208 Mcmeans Ave, Bay Minette, AL, 36507",208 Mcmeans Ave,Bay Minette,AL,36507,Baldwin,251-937-3933
10898,30.6774,-87.8527,"9917-A Spanish Fort Blvd, Daphne, AL, 36527",9917-A Spanish Fort Blvd,Daphne,AL,36527,Baldwin,251-626-3113
1822,30.5453,-87.7089,"21975 Hwy 59, Robertsdale, AL, 36567",21975 Hwy 59,Robertsdale,AL,36567,Baldwin,251-947-8602
17236,30.3039,-87.68,"3820 Gulf Shores Pkwy, Gulf Shores, AL, 36542",3820 Gulf Shores Pkwy,Gulf Shores,AL,36542,Baldwin,251-967-7002
4251,33.0767,-83.2262,"423 S Wayne St, Milledgeville, GA, 31061",423 S Wayne St,Milledgeville,GA,31061,Baldwin,478-452-3566
4565,33.0923,-83.2374,"960 N Columbia St, Milledgeville, GA, 31061",960 N Columbia St,Milledgeville,GA,31061,Baldwin,478-452-5533
16612,39.4622,-76.6335,"9901 York Rd, Cockeysville, MD, 21030",9901 York Rd,Cockeysville,MD,21030,Baltimore,410-683-6517
4079,39.2892,-76.7253,"5603 Baltimore National Pike, Catonsville, MD, 21228",5603 Baltimore National Pike,Catonsville,MD,21228,Baltimore,410-744-1422
4429,39.2665,-76.4957,"7845 Wise Ave, Dundalk, MD, 21222",7845 Wise Ave,Dundalk,MD,21222,Baltimore,410-285-1401
4129,39.3856,-76.5757,"1000 Taylor Ave, Towson, MD, 21286",1000 Taylor Ave,Towson,MD,21286,Baltimore,410-828-0708
4602,39.2766,-76.7402,"900 Edmondson Ave, Catonsville, MD, 21228",900 Edmondson Ave,Catonsville,MD,21228,Baltimore,410-719-6688
2045,39.3914,-76.5272,"2911 East Joppa Rd, Parkville, MD, 21234",2911 East Joppa Rd,Parkville,MD,21234,Baltimore,410-668-8501
2066,39.3451,-76.6404,"4625 Falls Road, Baltimore, MD, 21209",4625 Falls Road,Baltimore,MD,21209,Baltimore,410-662-1670
4302,39.357,-76.7657,"8302 Liberty Rd, Windsor Mill, MD, 21244",8302 Liberty Rd,Windsor Mill,MD,21244,Baltimore,410-655-9890
7656,39.2419,-76.6496,"3915 Hollins Ferry Road Corner Of Patapsco Road And Lansdowne Across From Landsowne High School, Halethorpe, MD, 21227",3915 Hollins Ferry Road Corner Of Patapsco Road And Lansdowne Across From Landsowne High School,Halethorpe,MD,21227,Baltimore,410-242-1441
10588,39.2642,-76.6998,"4701 Wilkens Ave, Catonsville, MD, 21228",4701 Wilkens Ave,Catonsville,MD,21228,Baltimore,443-297-3097
4274,39.3911,-76.4881,"4140 Joppa Road, Nottingham, MD, 21236",4140 Joppa Road,Nottingham,MD,21236,Baltimore,410-256-2844
16506,39.3947,-76.5814,"1238 Putty Hill Ave, Towson, MD, 21286",1238 Putty Hill Ave,Towson,MD,21286,Baltimore,410-823-4543
2160,39.3551,-76.4604,"9519 Philadelphia Road, Rosedale, MD, 21237",9519 Philadelphia Road,Rosedale,MD,21237,Baltimore,410-238-1071
2216,39.4104,-76.6086,"1001 York Rd, Towson, MD, 21204",1001 York Rd,Towson,MD,21204,Baltimore,410-823-3900
17086,39.3349,-76.4488,"1330 Martin Blvd, Middle River, MD, 21220",1330 Martin Blvd,Middle River,MD,21220,Baltimore,410-406-9082
2865,39.3089,-76.4757,"500 Eastern Ave, Essex, MD, 21221",500 Eastern Ave,Essex,MD,21221,Baltimore,410-238-2607
16870,39.3853,-76.7312,"1737 Reisterstown Rd, Pikesville, MD, 21208",1737 Reisterstown Rd,Pikesville,MD,21208,Baltimore,410-486-4190
10892,39.4153,-76.7738,"10201 Reisterstown Rd, Owings Mills, MD, 21117",10201 Reisterstown Rd,Owings Mills,MD,21117,Baltimore,410-581-4922
11042,39.3996,-76.6029,"401 York Rd, Towson, MD, 21204",401 York Rd,Towson,MD,21204,Baltimore,410-339-4699
2455,39.3355,-76.4578,"2 Compass Road, Middle River, MD, 21220",2 Compass Road,Middle River,MD,21220,Baltimore,410-238-3522
4030,39.4424,-76.8077,"11623 Reisterstown Rd, Reisterstown, MD, 21136",11623 Reisterstown Rd,Reisterstown,MD,21136,Baltimore,410-526-3509
16390,39.3713,-76.4515,"5230 Campbell Blvd, Nottingham, MD, 21236",5230 Campbell Blvd,Nottingham,MD,21236,Baltimore,410-933-9680
16430,39.4328,-76.7992,"11200 Reisterstown Rd, Owings Mills, MD, 21117",11200 Reisterstown Rd,Owings Mills,MD,21117,Baltimore,410-654-9877
3366,39.3664,-76.5498,"6910 Harford Rd, Parkville, MD, 21234",6910 Harford Rd,Parkville,MD,21234,Baltimore,410-426-4701
6858,39.4193,-76.4568,"9820 Belair Road, Perry Hall, MD, 21128",9820 Belair Road,Perry Hall,MD,21128,Baltimore,410-529-1460
17663,39.2748,-76.5663,"3559 Boston St, Baltimore, MD, 21224",3559 Boston St,Baltimore,MD,21224,Baltimore city,410-246-8516
3976,39.3105,-76.6426,"2509-2523 Pennsylvania Ave, Baltimore, MD, 21217",2509-2523 Pennsylvania Ave,Baltimore,MD,21217,Baltimore city,410-225-2091
5381,39.2777,-76.6147,"1000 S Charles St, Baltimore, MD, 21230",1000 S Charles St,Baltimore,MD,21230,Baltimore city,410-752-9087
4411,39.3522,-76.6834,"5501 Park Heights Ave, Baltimore, MD, 21215",5501 Park Heights Ave,Baltimore,MD,21215,Baltimore city,410-367-7802
2522,39.3221,-76.5738,"3300 Belair Rd, Baltimore, MD, 21213",3300 Belair Rd,Baltimore,MD,21213,Baltimore city,410-522-3843
5764,39.2937,-76.6589,"2560 West Franklin Street, Baltimore, MD, 21223",2560 West Franklin Street,Baltimore,MD,21223,Baltimore city,410-362-8803
7952,39.284,-76.6006,"630 Exeter St, Baltimore, MD, 21202",630 Exeter St,Baltimore,MD,21202,Baltimore city,410-962-6520
10565,39.3279,-76.6164,"3200 St Paul St, Baltimore, MD, 21218",3200 St Paul St,Baltimore,MD,21218,Baltimore city,410-243-1025
4438,39.3546,-76.5303,"6635-37 Belair Rd, Baltimore, MD, 21206",6635-37 Belair Rd,Baltimore,MD,21206,Baltimore city,410-254-9755
540,39.2879,-76.6134,"400 East Pratt St Suite 10, Baltimore, MD, 21202",400 East Pratt St Suite 10,Baltimore,MD,21202,Baltimore city,410-685-4843
2334,39.3181,-76.6173,"2504 N Charles Street, Baltimore, MD, 21218",2504 N Charles Street,Baltimore,MD,21218,Baltimore city,410-662-7594
10123,39.2942,-76.5904,"101 N Wolfe St, Baltimore, MD, 21231",101 N Wolfe St,Baltimore,MD,21231,Baltimore city,443-602-7628
2034,39.3522,-76.6105,"5200 York Road, Baltimore, MD, 21212",5200 York Road,Baltimore,MD,21212,Baltimore city,410-433-7711
4107,39.3595,-76.7086,"6828 Reisterstown Rd, Baltimore, MD, 21215",6828 Reisterstown Rd,Baltimore,MD,21215,Baltimore city,410-764-3445
10751,39.3008,-76.6161,"934 North Charles St, Baltimore, MD, 21201",934 North Charles St,Baltimore,MD,21201,Baltimore city,410-685-2187
3974,39.3513,-76.5619,"5407-17 Harford Rd Hamilton Business Community, Baltimore, MD, 21214",5407-17 Harford Rd Hamilton Business Community,Baltimore,MD,21214,Baltimore city,410-426-9855
3892,33.3258,-81.1352,"18252 Heritage Hwy, Denmark, SC, 29042",18252 Heritage Hwy,Denmark,SC,29042,Bamberg,803-793-4213
10336,29.7319,-99.0789,"1202 Main St Po Box 1658, Bandera, TX, 78003",1202 Main St Po Box 1658,Bandera,TX,78003,Bandera,830-460-7701
1850,41.7016,-70.4855,"77 Quaker Meeting House Road, Sandwich, MA, 02563",77 Quaker Meeting House Road,Sandwich,MA,2563,Barnstable,508-477-2655
1857,41.78,-70.0026,"9 West Rd Skaket Corners, Orleans, MA, 02653",9 West Rd Skaket Corners,Orleans,MA,2653,Barnstable,508-255-0570
1021,41.6942,-70.1503,"Rte 134 Patriot Square S/C, South Dennis, MA, 02660",Rte 134 Patriot Square S/C,South Dennis,MA,2660,Barnstable,508-398-0133
2322,41.6525,-70.2889,"176 North Street, Hyannis, MA, 02601",176 North Street,Hyannis,MA,2601,Barnstable,508-775-8462
4313,41.6512,-70.2415,"438 Route 28, West Yarmouth, MA, 02673",438 Route 28,West Yarmouth,MA,2673,Barnstable,508-771-4429
1859,41.7083,-70.0238,"148 Route 137, Harwich, MA, 02645",148 Route 137,Harwich,MA,2645,Barnstable,508-432-2018
944,41.6876,-70.2079,"465 Station Avenue, South Yarmouth, MA, 02664",465 Station Avenue,South Yarmouth,MA,2664,Barnstable,508-394-0926
1253,41.617,-70.4887,"8 Greene Street Rts 28 And 151 Mashpee Commons, Mashpee, MA, 02649",8 Greene Street Rts 28 And 151 Mashpee Commons,Mashpee,MA,2649,Barnstable,508-477-1535
17771,41.6673,-70.2953,"793 Iyannough Rd, Hyannis, MA, 02601",793 Iyannough Rd,Hyannis,MA,2601,Barnstable,508-827-3147
1869,41.6597,-70.327,"1080 Falmouth Rd, Hyannis, MA, 02601",1080 Falmouth Rd,Hyannis,MA,2601,Barnstable,508-778-4064
1870,41.5778,-70.5587,"419 East Falmouth Hwy, East Falmouth, MA, 02536",419 East Falmouth Hwy,East Falmouth,MA,2536,Barnstable,508-540-8621
1878,41.6848,-69.968,"12 Queen Anne Rd, Chatham, MA, 02633",12 Queen Anne Rd,Chatham,MA,2633,Barnstable,508-945-4340
10852,41.6639,-70.2874,"411 Barnstable Rd, Hyannis, MA, 02601",411 Barnstable Rd,Hyannis,MA,2601,Barnstable,508-771-4753
719,41.7887,-69.9919,"110 Route 6a, Orleans, MA, 02653",110 Route 6a,Orleans,MA,2653,Barnstable,508-240-2759
1576,41.753,-70.5975,"6 Head Of The Bay Rd, Buzzards Bay, MA, 02532",6 Head Of The Bay Rd,Buzzards Bay,MA,2532,Barnstable,508-759-1097
636,41.766,-70.5078,"Tupper Rd 65 Rte 6a Purity Plz, Sandwich, MA, 02563",Tupper Rd 65 Rte 6a Purity Plz,Sandwich,MA,2563,Barnstable,508-888-4333
735,41.6566,-70.2063,"976 Route 28, South Yarmouth, MA, 02664",976 Route 28,South Yarmouth,MA,2664,Barnstable,508-398-8800
2200,41.6476,-70.4241,"1030 Putnam Avenue Route 28, Marstons Mills, MA, 02648",1030 Putnam Avenue Route 28,Marstons Mills,MA,2648,Barnstable,508-428-9638
11131,42.053,-70.1865,"132 Bradford St, Provincetown, MA, 02657",132 Bradford St,Provincetown,MA,2657,Barnstable,508-487-0019
594,41.5604,-70.5988,"105 Davis Straits, Falmouth, MA, 02540",105 Davis Straits,Falmouth,MA,2540,Barnstable,508-540-4307
860,41.6677,-70.0811,"Main St 6 Post Office Square, Harwich Port, MA, 02646",Main St 6 Post Office Square,Harwich Port,MA,2646,Barnstable,508-430-0660
7508,33.2453,-81.3669,"9912 Dunbarton Boulevard, Barnwell, SC, 29812",9912 Dunbarton Boulevard,Barnwell,SC,29812,Barnwell,803-259-3649
10772,45.4014,-91.8499,"535 E Division Ave, Barron, WI, 54812",535 E Division Ave,Barron,WI,54812,Barron,715-637-0991
17539,33.9434,-83.7525,"916 Loganville Hwy, Bethlehem, GA, 30620",916 Loganville Hwy,Bethlehem,GA,30620,Barrow,678-975-3061
4389,33.9908,-83.7239,"6 West May Street, Winder, GA, 30680",6 West May Street,Winder,GA,30680,Barrow,770-867-7407
3646,34.0103,-83.8524,"1685 Atlanta Hwy Northwest, Auburn, GA, 30011",1685 Atlanta Hwy Northwest,Auburn,GA,30011,Barrow,770-682-7053
6792,39.199,-85.974,"4495 West State Road 46, Columbus, IN, 47201",4495 West State Road 46,Columbus,IN,47201,Bartholomew,812-342-6817
6757,39.2228,-85.8897,"2423 N National Rd, Columbus, IN, 47201",2423 N National Rd,Columbus,IN,47201,Bartholomew,812-372-7804
17029,39.219,-85.8847,"1865 N National Rd, Columbus, IN, 47201",1865 N National Rd,Columbus,IN,47201,Bartholomew,812-376-6938
3086,34.1503,-84.8254,"1162 West Ave, Cartersville, GA, 30120",1162 West Ave,Cartersville,GA,30120,Bartow,770-606-1260
8976,34.1983,-84.793,"965 Joe Frank Harris Pkwy Se, Cartersville, GA, 30120",965 Joe Frank Harris Pkwy Se,Cartersville,GA,30120,Bartow,678-721-1090
5692,34.1674,-84.793,"13 North Tennessee St, Cartersville, GA, 30120",13 North Tennessee St,Cartersville,GA,30120,Bartow,770-386-2417
1037,30.105,-97.3074,"1671 Highway 71 East, Bastrop, TX, 78602",1671 Highway 71 East,Bastrop,TX,78602,Bastrop,512-308-0234
10337,30.3507,-97.3875,"1300 W Us Highway, Elgin, TX, 78621",1300 W Us Highway,Elgin,TX,78621,Bastrop,512-285-5552
16259,30.1917,-85.6488,"2340 Highway 77, Panama City, FL, 32405",2340 Highway 77,Panama City,FL,32405,Bay,850-785-9528
5183,30.1574,-85.6511,"660 East Hwy 98, Panama City, FL, 32401",660 East Hwy 98,Panama City,FL,32401,Bay,850-522-9014
3667,30.238,-85.6481,"1317 Ohio Ave, Lynn Haven, FL, 32444",1317 Ohio Ave,Lynn Haven,FL,32444,Bay,850-265-5640
4500,30.1534,-85.5903,"302 N Tyndall Pkwy, Panama City, FL, 32404",302 N Tyndall Pkwy,Panama City,FL,32404,Bay,850-871-5525
17286,30.2191,-85.8686,"15555 Starfish St, Panama City Beach, FL, 32413",15555 Starfish St,Panama City Beach,FL,32413,Bay,850-236-3721
6809,30.2639,-85.9743,"23208 Sr 30 (Front Beach Hwy), Panama City Beach, FL, 32413",23208 Sr 30 (Front Beach Hwy),Panama City Beach,FL,32413,Bay,850-230-1434
3550,30.2006,-85.8209,"11801 Panama City Beach Pkwy, Panama City Beach, FL, 32407",11801 Panama City Beach Pkwy,Panama City Beach,FL,32407,Bay,850-230-6023
5204,30.1893,-85.6752,"955 W 23rd St, Panama City, FL, 32405",955 W 23rd St,Panama City,FL,32405,Bay,850-769-3366
711,30.1746,-85.6833,"1347 W 15th St, Panama City, FL, 32401",1347 W 15th St,Panama City,FL,32401,Bay,850-747-1124
3506,30.1894,-85.7613,"7112 W Hwy 98, Panama City Beach, FL, 32407",7112 W Hwy 98,Panama City Beach,FL,32407,Bay,850-236-9889
3629,30.225,-85.8915,"17172 Front Beach Rd, Panama City Beach, FL, 32413",17172 Front Beach Rd,Panama City Beach,FL,32413,Bay,850-234-7874
10626,43.602,-83.9152,"101 North Euclid Ave, Bay City, MI, 48706",101 North Euclid Ave,Bay City,MI,48706,Bay,989-686-2807
5677,18.3467,-66.1886,"1 Rexville Plaza Ste 13, Bayamon, PR, 00957",1 Rexville Plaza Ste 13,Bayamon,PR,957,Bayamon Municipio,787-797-2950
4594,18.4056,-66.1804,"2114 Carr 2 Int Calle Morales, Bayamon, PR, 00961",2114 Carr 2 Int Calle Morales,Bayamon,PR,961,Bayamon Municipio,787-740-2850
4596,18.343,-66.1972,"4880 Carr 167 Int Pr-829 Barrio Buena Vista, Bayamon, PR, 00956",4880 Carr 167 Int Pr-829 Barrio Buena Vista,Bayamon,PR,956,Bayamon Municipio,787-730-3580
5219,18.3907,-66.1598,"Calle Marginal600 Urb Flamboyan Gardens, Bayamon, PR, 00956",Calle Marginal600 Urb Flamboyan Gardens,Bayamon,PR,956,Bayamon Municipio,787-785-0411
4126,35.5477,-77.0402,"1020 John Small Avenue, Washington, NC, 27889",1020 John Small Avenue,Washington,NC,27889,Beaufort,252-946-9631
5566,32.1534,-80.7619,"10 Pope Avenue, Hilton Head Island, SC, 29928",10 Pope Avenue,Hilton Head Island,SC,29928,Beaufort,843-785-7786
7333,32.2136,-80.7017,"85 Mathews Dr, Hilton Head Island, SC, 29926",85 Mathews Dr,Hilton Head Island,SC,29926,Beaufort,843-681-8363
4489,32.257,-80.8508,"1006 Fording Island Road Kittie Crossing Shopping Center, Bluffton, SC, 29910",1006 Fording Island Road Kittie Crossing Shopping Center,Bluffton,SC,29910,Beaufort,843-815-2801
3826,32.3941,-80.6866,"1500 Ribaut Road, Port Royal, SC, 29935",1500 Ribaut Road,Port Royal,SC,29935,Beaufort,843-524-5440
16641,32.2545,-80.85,"1050 Fording Island Rd, Bluffton, SC, 29910",1050 Fording Island Rd,Bluffton,SC,29910,Beaufort,843-815-8191
17186,40.681,-80.3129,"87 Wagner Rd, Monaca, PA, 15061",87 Wagner Rd,Monaca,PA,15061,Beaver,724-728-7259
4232,40.6915,-80.2808,"850 Pennsylvania Ave, Monaca, PA, 15061",850 Pennsylvania Ave,Monaca,PA,15061,Beaver,724-728-4238
4162,40.7738,-80.3746,"2556 Constitution Blvd Chippewa Mall, Beaver Falls, PA, 15010",2556 Constitution Blvd Chippewa Mall,Beaver Falls,PA,15010,Beaver,724-847-2190
4039,40.5889,-80.2282,"300 8th St, Ambridge, PA, 15003",300 8th St,Ambridge,PA,15003,Beaver,724-266-9194
4055,40.6082,-80.2836,"2719 Brodhead Rd, Aliquippa, PA, 15001",2719 Brodhead Rd,Aliquippa,PA,15001,Beaver,724-378-4411
2392,40.5698,-80.256,"3000 Heights Road, Aliquippa, PA, 15001",3000 Heights Road,Aliquippa,PA,15001,Beaver,724-857-4041
5616,46.8158,-95.8387,"329 Frazee Street East, Detroit Lakes, MN, 56501",329 Frazee Street East,Detroit Lakes,MN,56501,Becker,218-847-1484
1682,40.0177,-78.4916,"644 East Penn Street, Bedford, PA, 15522",644 East Penn Street,Bedford,PA,15522,Bedford,814-623-1973
6400,35.4955,-86.4586,"825 N Main St, Shelbyville, TN, 37160",825 N Main St,Shelbyville,TN,37160,Bedford,931-684-8702
5722,37.3268,-79.5037,"1217 E Main St, Bedford, VA, 24523",1217 E Main St,Bedford,VA,24523,Bedford,540-586-2187
7378,37.3483,-79.5066,"1515-A Longwood Ave, Bedford, VA, 24523",1515-A Longwood Ave,Bedford,VA,24523,Bedford,540-586-3785
7948,37.3704,-79.3007,"14566 Forest Rd, Forest, VA, 24551",14566 Forest Rd,Forest,VA,24551,Bedford,434-525-6097
8931,43.5317,-71.4643,"220 Union Ave, Laconia, NH, 03246",220 Union Ave,Laconia,NH,3246,Belknap,603-527-0173
863,43.5618,-71.4459,"1371 Lake Shore Rd, Gilford, NH, 03249",1371 Lake Shore Rd,Gilford,NH,3249,Belknap,603-524-2460
10414,31.084,-97.4573,"2849 N Main St, Belton, TX, 76513",2849 N Main St,Belton,TX,76513,Bell,254-933-7553
10221,31.0937,-97.7323,"2502 Trimmier Rd, Killeen, TX, 76542",2502 Trimmier Rd,Killeen,TX,76542,Bell,254-554-0580
17438,31.0745,-97.6627,"201 E Central Texas Expy, Harker Heights, TX, 76548",201 E Central Texas Expy,Harker Heights,TX,76548,Bell,254-953-5881
6835,31.075,-97.3683,"2674 South 31st St, Temple, TX, 76504",2674 South 31st St,Temple,TX,76504,Bell,254-773-9953
17352,31.0937,-97.3854,"3550 S General Bruce Dr, Temple, TX, 76504",3550 S General Bruce Dr,Temple,TX,76504,Bell,254-295-1058
10585,31.0853,-97.7849,"3300 W Stan Schlueter Loop, Killeen, TX, 76549",3300 W Stan Schlueter Loop,Killeen,TX,76549,Bell,254-526-4566
6270,40.0858,-80.7347,"404 Aetna St, Martins Ferry, OH, 43935",404 Aetna St,Martins Ferry,OH,43935,Belmont,740-633-0831
6271,40.0775,-80.8726,"68501 Addie Way, Saint Clairsville, OH, 43950",68501 Addie Way,Saint Clairsville,OH,43950,Belmont,740-695-6322
10756,47.4911,-94.8793,"2312 Bemidji Ave N, Bemidji, MN, 56601",2312 Bemidji Ave N,Bemidji,MN,56601,Beltrami,218-751-1626
16184,47.4932,-94.9104,"2100 Paul Bunyan Dr Nw, Bemidji, MN, 56601",2100 Paul Bunyan Dr Nw,Bemidji,MN,56601,Beltrami,218-759-0133
4603,31.7058,-83.2527,"816 S Grant St, Fitzgerald, GA, 31750",816 S Grant St,Fitzgerald,GA,31750,Ben Hill,229-423-6523
337,42.8954,-73.2023,"8 Kocher Dr, Bennington, VT, 05201",8 Kocher Dr,Bennington,VT,5201,Bennington,802-442-8369
10408,36.4382,-94.2366,"2833 Bella Vista Way, Bella Vista, AR, 72714",2833 Bella Vista Way,Bella Vista,AR,72714,Benton,479-876-2153
10816,36.3345,-94.1431,"1749 W Walnut St, Rogers, AR, 72756",1749 W Walnut St,Rogers,AR,72756,Benton,479-246-0871
17544,36.2994,-94.1728,"2404 Promenade Blvd, Rogers, AR, 72758",2404 Promenade Blvd,Rogers,AR,72758,Benton,479-986-1101
17381,46.2602,-119.314,"2941 Queensgate Dr, Richland, WA, 99352",2941 Queensgate Dr,Richland,WA,99352,Benton,509-627-7501
16276,46.2259,-119.2264,"1106 N Columbia Center Blvd, Kennewick, WA, 99336",1106 N Columbia Center Blvd,Kennewick,WA,99336,Benton,509-737-1700
5491,41.1048,-74.1476,"45 Franklin Turnpike, Mahwah, NJ, 07430",45 Franklin Turnpike,Mahwah,NJ,7430,Bergen,201-529-5930
1269,40.8617,-73.9695,"1681 Fletcher Ave Linwood Plaza, Fort Lee, NJ, 07024",1681 Fletcher Ave Linwood Plaza,Fort Lee,NJ,7024,Bergen,201-944-1214
481,40.8519,-73.9868,"1475 Bergen Boulevard, Fort Lee, NJ, 07024",1475 Bergen Boulevard,Fort Lee,NJ,7024,Bergen,201-947-4840
1072,40.9633,-74.1332,"175 Rock Road, Glen Rock, NJ, 07452",175 Rock Road,Glen Rock,NJ,7452,Bergen,201-445-2857
6076,40.8816,-74.0433,"110 Main Street, Hackensack, NJ, 07601",110 Main Street,Hackensack,NJ,7601,Bergen,201-487-0092
519,40.9845,-74.1393,"85 Godwin Ave Midland Park S/C, Midland Park, NJ, 07432",85 Godwin Ave Midland Park S/C,Midland Park,NJ,7432,Bergen,201-447-0110
2093,40.9404,-74.1418,"18-35 River Rd, Fair Lawn, NJ, 07410",18-35 River Rd,Fair Lawn,NJ,7410,Bergen,201-791-0012
289,40.8897,-74.0249,"540 Cedar Lane, Teaneck, NJ, 07666",540 Cedar Lane,Teaneck,NJ,7666,Bergen,201-836-6990
7171,40.8816,-74.0837,"221 Main St, Lodi, NJ, 07644",221 Main St,Lodi,NJ,7644,Bergen,973-773-0005
3097,40.8759,-74.0201,"375 Queen Anne Road, Teaneck, NJ, 07666",375 Queen Anne Road,Teaneck,NJ,7666,Bergen,201-928-2901
2265,40.916,-74.0998,"475 Fairlawn Parkway, Saddle Brook, NJ, 07663",475 Fairlawn Parkway,Saddle Brook,NJ,7663,Bergen,201-475-1516
7105,40.9002,-74.0778,"150 Rochelle Ave, Rochelle Park, NJ, 07662",150 Rochelle Ave,Rochelle Park,NJ,7662,Bergen,201-368-7540
5820,40.8513,-74.0436,"200 Liberty Street, Little Ferry, NJ, 07643",200 Liberty Street,Little Ferry,NJ,7643,Bergen,201-270-5302
2746,40.865,-73.9859,"410 Broad Ave, Leonia, NJ, 07605",410 Broad Ave,Leonia,NJ,7605,Bergen,201-592-2201
10655,40.8515,-73.9687,"165 Main St, Fort Lee, NJ, 07024",165 Main St,Fort Lee,NJ,7024,Bergen,201-944-5394
849,41.0403,-74.0283,"20 Kinderkamack Road, Montvale, NJ, 07645",20 Kinderkamack Road,Montvale,NJ,7645,Bergen,201-930-9010
596,40.9408,-74.0219,"364 River Road, New Milford, NJ, 07646",364 River Road,New Milford,NJ,7646,Bergen,201-265-8825
4163,41.0566,-74.0686,"106 Chestnut Ridge Rd, Montvale, NJ, 07645",106 Chestnut Ridge Rd,Montvale,NJ,7645,Bergen,201-505-4905
17444,40.915,-74.059,"900 Bergen Town Ctr, Paramus, NJ, 07652",900 Bergen Town Ctr,Paramus,NJ,7652,Bergen,201-881-7661
1224,41.0143,-73.9837,"216 Old Tappan Rd/34e Bi-State Plz S/C, Westwood, NJ, 07675",216 Old Tappan Rd/34e Bi-State Plz S/C,Westwood,NJ,7675,Bergen,201-722-0932
129,40.8784,-74.0569,"101 Polifly Rd Polifly Plz, Hackensack, NJ, 07601",101 Polifly Rd Polifly Plz,Hackensack,NJ,7601,Bergen,201-525-1149
16671,40.8992,-74.0392,"630 Main St, Hackensack, NJ, 07601",630 Main St,Hackensack,NJ,7601,Bergen,201-678-0569
4644,40.9405,-73.962,"80 Piermont Rd, Cresskill, NJ, 07626",80 Piermont Rd,Cresskill,NJ,7626,Bergen,201-894-0104
2742,40.8858,-74.013,"188 Cedar Lane, Teaneck, NJ, 07666",188 Cedar Lane,Teaneck,NJ,7666,Bergen,201-287-4441
10379,40.8943,-73.9762,"10 West Palisade Ave, Englewood, NJ, 07631",10 West Palisade Ave,Englewood,NJ,7631,Bergen,201-541-5548
1272,40.9256,-74.0339,"135 Kinderkamac Rd, River Edge, NJ, 07661",135 Kinderkamac Rd,River Edge,NJ,7661,Bergen,201-441-9223
251,40.9393,-74.1186,"24-12 Fair Lawn Avenue, Fair Lawn, NJ, 07410",24-12 Fair Lawn Avenue,Fair Lawn,NJ,7410,Bergen,201-797-7500
2950,40.9263,-74.0272,"880 River Rd, New Milford, NJ, 07646",880 River Rd,New Milford,NJ,7646,Bergen,201-225-2101
716,41.0155,-73.9459,"269a Livingston St, Northvale, NJ, 07647",269a Livingston St,Northvale,NJ,7647,Bergen,201-784-0308
1059,41.0667,-74.1378,"35 Interstate Shop Ctr Route 17 And Franklin Turnpike, Ramsey, NJ, 07446",35 Interstate Shop Ctr Route 17 And Franklin Turnpike,Ramsey,NJ,7446,Bergen,201-327-0088
5300,40.9169,-74.0625,"1000 Bergen Town Center, Paramus, NJ, 07652",1000 Bergen Town Center,Paramus,NJ,7652,Bergen,201-226-0105
6070,40.8516,-74.0843,"295 Valley Blvd, Wood Ridge, NJ, 07075",295 Valley Blvd,Wood Ridge,NJ,7075,Bergen,201-933-7292
320,40.9899,-74.0319,"289 Broadway, Westwood, NJ, 07675",289 Broadway,Westwood,NJ,7675,Bergen,201-664-1004
17690,40.9712,-73.9573,"29 Vervalen St, Closter, NJ, 07624",29 Vervalen St,Closter,NJ,7624,Bergen,201-750-2023
749,40.9256,-73.9655,"17-19 Washington Street, Tenafly, NJ, 07670",17-19 Washington Street,Tenafly,NJ,7670,Bergen,201-567-5650
456,40.9717,-73.9609,"250 Closter Dock Road, Closter, NJ, 07624",250 Closter Dock Road,Closter,NJ,7624,Bergen,201-767-6890
16610,40.814,-73.9818,"543 River Rd, Edgewater, NJ, 07020",543 River Rd,Edgewater,NJ,7020,Bergen,201-402-0253
360,40.7973,-74.1273,"585 Ridge Rd, North Arlington, NJ, 07031",585 Ridge Rd,North Arlington,NJ,7031,Bergen,201-997-0333
814,40.9415,-73.9965,"50 West Madison Ave, Dumont, NJ, 07628",50 West Madison Ave,Dumont,NJ,7628,Bergen,201-385-8883
10289,40.819,-74.0019,"215 Bergen Blvd, Fairview, NJ, 07022",215 Bergen Blvd,Fairview,NJ,7022,Bergen,201-941-2180
381,41.0118,-74.1658,"303 Franklin Avenue, Wyckoff, NJ, 07481",303 Franklin Avenue,Wyckoff,NJ,7481,Bergen,201-891-6660
1167,40.8993,-74.1112,"449 Market Street, Elmwood Park, NJ, 07407",449 Market Street,Elmwood Park,NJ,7407,Bergen,201-794-7975
3136,40.7775,-74.1297,"440 Belleville Tpke Corner Of Schuyler Avenue, North Arlington, NJ, 07031",440 Belleville Tpke Corner Of Schuyler Avenue,North Arlington,NJ,7031,Bergen,201-246-7231
2957,40.8424,-74.1058,"572 Paterson Ave, East Rutherford, NJ, 07073",572 Paterson Ave,East Rutherford,NJ,7073,Bergen,201-507-3602
5427,40.9234,-74.1062,"29-00 Broadway (Rt 4), Fair Lawn, NJ, 07410",29-00 Broadway (Rt 4),Fair Lawn,NJ,7410,Bergen,201-475-8311
2024,40.8746,-74.1043,"281 Midland Avenue, Garfield, NJ, 07026",281 Midland Avenue,Garfield,NJ,7026,Bergen,973-253-8301
975,40.8565,-74.0254,"198 Main Street, Ridgefield Park, NJ, 07660",198 Main Street,Ridgefield Park,NJ,7660,Bergen,201-641-3033
8924,40.8044,-73.9923,"65 River Rd, Edgewater, NJ, 07020",65 River Rd,Edgewater,NJ,7020,Bergen,201-313-2254
3834,33.1867,-79.9994,"100 Rembert Dennis Blvd, Moncks Corner, SC, 29461",100 Rembert Dennis Blvd,Moncks Corner,SC,29461,Berkeley,843-761-8261
487,32.9004,-80.0116,"1858 Remount Rd, Hanahan, SC, 29410",1858 Remount Rd,Hanahan,SC,29410,Berkeley,843-747-5213
7568,32.9728,-80.0186,"1055 Red Bank Rd, Goose Creek, SC, 29445",1055 Red Bank Rd,Goose Creek,SC,29445,Berkeley,843-572-5707
6410,33.0234,-80.0562,"431 B St James Ave Suite I, Goose Creek, SC, 29445",431 B St James Ave Suite I,Goose Creek,SC,29445,Berkeley,843-572-2606
7398,33.0188,-80.0877,"9 Corporate Parkway, Goose Creek, SC, 29445",9 Corporate Parkway,Goose Creek,SC,29445,Berkeley,843-572-3237
1308,39.3574,-78.0394,"46 Middleway Pike, Inwood, WV, 25428",46 Middleway Pike,Inwood,WV,25428,Berkeley,304-229-4318
17565,39.4612,-77.9678,"436 Retail Commons Pkwy, Martinsburg, WV, 25403",436 Retail Commons Pkwy,Martinsburg,WV,25403,Berkeley,304-264-5201
1429,39.4758,-77.9586,"1200 Edwin Miller Blvd, Martinsburg, WV, 25404",1200 Edwin Miller Blvd,Martinsburg,WV,25404,Berkeley,304-263-4951
1923,40.3211,-76.0094,"3100 Shillington Rd, Reading, PA, 19608",3100 Shillington Rd,Reading,PA,19608,Berks,610-678-9054
2969,40.3699,-76.1888,"2800 Conrad Weisser Parkway, Womelsdorf, PA, 19567",2800 Conrad Weisser Parkway,Womelsdorf,PA,19567,Berks,610-589-4417
4064,40.335,-75.9262,"544 Penn St, Reading, PA, 19602",544 Penn St,Reading,PA,19602,Berks,610-376-3438
1310,40.3289,-75.6245,"801 E Philadelphia Ave Unit 1, Boyertown, PA, 19512",801 E Philadelphia Ave Unit 1,Boyertown,PA,19512,Berks,610-369-9375
16577,40.36,-75.9835,"2769 Papermill Rd, Reading, PA, 19610",2769 Papermill Rd,Reading,PA,19610,Berks,610-374-9942
17370,40.3947,-75.9278,"4220 N 5th Street Hwy, Temple, PA, 19560",4220 N 5th Street Hwy,Temple,PA,19560,Berks,610-921-5141
5065,40.4531,-75.8904,"8565 Allentown Pike, Blandon, PA, 19510",8565 Allentown Pike,Blandon,PA,19510,Berks,610-916-2499
1301,40.5172,-75.7753,"45 Constitution Blvd Village Square S/C, Kutztown, PA, 19530",45 Constitution Blvd Village Square S/C,Kutztown,PA,19530,Berks,610-683-7349
1321,40.3858,-75.9284,"3498 N 5th Street Hwy, Reading, PA, 19605",3498 N 5th Street Hwy,Reading,PA,19605,Berks,610-929-9864
5734,40.3656,-75.9148,"2001 North 11th Street, Reading, PA, 19604",2001 North 11th Street,Reading,PA,19604,Berks,610-921-1200
1319,40.5067,-75.9661,"1054 Shoemaker Avenue, Shoemakersville, PA, 19555",1054 Shoemaker Avenue,Shoemakersville,PA,19555,Berks,610-562-2454
17557,40.3083,-75.8601,"4599 Perkiomen Ave, Reading, PA, 19606",4599 Perkiomen Ave,Reading,PA,19606,Berks,484-651-1921
1769,40.3898,-75.9967,"906 W Leesport Rd, Leesport, PA, 19533",906 W Leesport Rd,Leesport,PA,19533,Berks,610-208-8612
10045,40.3281,-75.8927,"2239 Perkiomen Ave, Reading, PA, 19606",2239 Perkiomen Ave,Reading,PA,19606,Berks,610-779-7939
7838,40.2542,-75.7179,"1149 Ben Franklin Hwy West, Douglassville, PA, 19518",1149 Ben Franklin Hwy West,Douglassville,PA,19518,Berks,610-385-4300
3242,40.3128,-75.9486,"1303 Lancaster Ave, Reading, PA, 19607",1303 Lancaster Ave,Reading,PA,19607,Berks,610-796-3103
8970,42.1927,-73.3645,"362 Main Street Suite 2, Great Barrington, MA, 01230",362 Main Street Suite 2,Great Barrington,MA,1230,Berkshire,413-528-2860
17210,42.4949,-73.2068,"655 Cheshire Rd, Lanesborough, MA, 01237",655 Cheshire Rd,Lanesborough,MA,1237,Berkshire,413-236-4223
257,42.4474,-73.2586,"107 West St, Pittsfield, MA, 01201",107 West St,Pittsfield,MA,1201,Berkshire,413-499-4624
1131,42.7012,-73.111,"Veterans Memorial Dr Big Y S/C, North Adams, MA, 01247",Veterans Memorial Dr Big Y S/C,North Adams,MA,1247,Berkshire,413-664-8712
433,42.4049,-73.2665,"481 Pittsfield Rd, Lenox, MA, 01240",481 Pittsfield Rd,Lenox,MA,1240,Berkshire,413-499-3430
7242,35.1504,-106.6866,"4201 Montano Rd Nw, Albuquerque, NM, 87120",4201 Montano Rd Nw,Albuquerque,NM,87120,Bernalillo,505-922-4997
16135,35.0858,-106.5271,"11120 Lomas Blvd Ne, Albuquerque, NM, 87112",11120 Lomas Blvd Ne,Albuquerque,NM,87112,Bernalillo,505-346-0193
16166,35.1861,-106.6649,"9371 Coors Blvd Nw, Albuquerque, NM, 87114",9371 Coors Blvd Nw,Albuquerque,NM,87114,Bernalillo,505-899-7731
8915,35.1082,-106.5336,"9640 Menaul Blvd Ne, Albuquerque, NM, 87112",9640 Menaul Blvd Ne,Albuquerque,NM,87112,Bernalillo,505-294-4167
16134,35.1297,-106.5482,"8510 Montgomery Blvd Ne, Albuquerque, NM, 87111",8510 Montgomery Blvd Ne,Albuquerque,NM,87111,Bernalillo,505-348-0066
8918,35.1304,-106.5856,"4340 San Mateo Blvd Ne, Albuquerque, NM, 87110",4340 San Mateo Blvd Ne,Albuquerque,NM,87110,Bernalillo,505-884-0417
8981,35.0764,-106.7234,"7900 Central Ave Sw, Albuquerque, NM, 87121",7900 Central Ave Sw,Albuquerque,NM,87121,Bernalillo,505-833-7598
17650,35.1008,-106.5677,"2120 Louisiana Blvd Ne, Albuquerque, NM, 87110",2120 Louisiana Blvd Ne,Albuquerque,NM,87110,Bernalillo,505-200-3235
7319,35.2139,-106.6988,"10700 Unser Blvd Nw, Albuquerque, NM, 87114",10700 Unser Blvd Nw,Albuquerque,NM,87114,Bernalillo,505-792-1992
17124,35.1722,-106.5818,"6100 Paseo Del Norte Ne, Albuquerque, NM, 87113",6100 Paseo Del Norte Ne,Albuquerque,NM,87113,Bernalillo,505-346-0136
5494,35.0955,-106.4967,"1500 Tramway Blvd Ne, Albuquerque, NM, 87112",1500 Tramway Blvd Ne,Albuquerque,NM,87112,Bernalillo,505-296-4803
8917,35.1728,-106.4971,"7847 Tramway Blvd, Albuquerque, NM, 87122",7847 Tramway Blvd,Albuquerque,NM,87122,Bernalillo,505-821-5422
10592,42.0902,-86.4855,"2506 Niles Avenue, Saint Joseph, MI, 49085",2506 Niles Avenue,Saint Joseph,MI,49085,Berrien,269-982-0034
7725,29.4266,-98.4975,"343 W Houston St Ste 106, San Antonio, TX, 78205",343 W Houston St Ste 106,San Antonio,TX,78205,Bexar,210-225-4148
8386,29.5762,-98.5649,"4100 De Zavala Rd At The Corner Of Lockhill-Selma Road, San Antonio, TX, 78249",4100 De Zavala Rd At The Corner Of Lockhill-Selma Road,San Antonio,TX,78249,Bexar,210-492-9741
7808,29.5112,-98.5806,"4805 Medical Dr, San Antonio, TX, 78229",4805 Medical Dr,San Antonio,TX,78229,Bexar,210-616-0482
17267,29.606,-98.5968,"17502 La Cantera Pkwy, San Antonio, TX, 78257",17502 La Cantera Pkwy,San Antonio,TX,78257,Bexar,210-247-0114
10264,29.4132,-98.4051,"1118 S Ww White Rd, San Antonio, TX, 78220",1118 S Ww White Rd,San Antonio,TX,78220,Bexar,210-359-1429
7403,29.3573,-98.4919,"103 Sw Military Dr, San Antonio, TX, 78221",103 Sw Military Dr,San Antonio,TX,78221,Bexar,210-927-6755
7299,29.514,-98.4983,"7202 San Pedro, San Antonio, TX, 78216",7202 San Pedro,San Antonio,TX,78216,Bexar,210-340-0830
2263,29.6482,-98.4245,"22202 Bulverde Rd, San Antonio, TX, 78261",22202 Bulverde Rd,San Antonio,TX,78261,Bexar,210-497-0353
6955,29.5356,-98.3315,"8027 Kitty Hawk, Converse, TX, 78109",8027 Kitty Hawk,Converse,TX,78109,Bexar,210-566-3615
10051,29.3763,-98.4479,"2920 East Southcross Blvd, San Antonio, TX, 78223",2920 East Southcross Blvd,San Antonio,TX,78223,Bexar,210-532-3923
16238,29.3556,-98.543,"2810 Sw Military Dr, San Antonio, TX, 78224",2810 Sw Military Dr,San Antonio,TX,78224,Bexar,210-927-4752
16038,29.5646,-98.4799,"13700 San Pedro Ave, San Antonio, TX, 78232",13700 San Pedro Ave,San Antonio,TX,78232,Bexar,210-545-9208
7303,29.5096,-98.3808,"5506 Walzem Rd, San Antonio, TX, 78218",5506 Walzem Rd,San Antonio,TX,78218,Bexar,210-653-3140
7187,29.5991,-98.4185,"17307 Bulverde Rd, San Antonio, TX, 78247",17307 Bulverde Rd,San Antonio,TX,78247,Bexar,210-404-9054
10633,29.3525,-98.4264,"3502 Se Military Dr, San Antonio, TX, 78223",3502 Se Military Dr,San Antonio,TX,78223,Bexar,210-359-0139
10485,29.5586,-98.5178,"919 Wurzbach Parkway, San Antonio, TX, 78231",919 Wurzbach Parkway,San Antonio,TX,78231,Bexar,210-764-1095
7551,29.3875,-98.5237,"2801 Nogalitos, San Antonio, TX, 78225",2801 Nogalitos,San Antonio,TX,78225,Bexar,210-921-2090
10597,29.3372,-98.552,"8731 Poteet Jourdanton Freeway, San Antonio, TX, 78224",8731 Poteet Jourdanton Freeway,San Antonio,TX,78224,Bexar,210-927-8200
16972,29.354,-98.436,"3227 Se Military Dr, San Antonio, TX, 78223",3227 Se Military Dr,San Antonio,TX,78223,Bexar,210-247-0083
1057,29.5186,-98.6631,"9140 Guilbeau, San Antonio, TX, 78250",9140 Guilbeau,San Antonio,TX,78250,Bexar,210-520-5183
3894,29.6158,-98.493,"120 E Sonterra Blvd, San Antonio, TX, 78258",120 E Sonterra Blvd,San Antonio,TX,78258,Bexar,210-404-9006
10141,29.3464,-98.6148,"5975 Old Pearsall Rd, San Antonio, TX, 78242",5975 Old Pearsall Rd,San Antonio,TX,78242,Bexar,210-623-6645
7724,29.5349,-98.5591,"10225 Wurzbach Rd, San Antonio, TX, 78230",10225 Wurzbach Rd,San Antonio,TX,78230,Bexar,210-690-1616
16908,29.5476,-98.6632,"11311 Bandera Rd, San Antonio, TX, 78250",11311 Bandera Rd,San Antonio,TX,78250,Bexar,210-682-2533
7306,29.5329,-98.5234,"6915 W Ave, San Antonio, TX, 78213",6915 W Ave,San Antonio,TX,78213,Bexar,210-341-1487
7307,29.4462,-98.5402,"2018 Culebra Rd, San Antonio, TX, 78201",2018 Culebra Rd,San Antonio,TX,78201,Bexar,210-785-9764
2391,29.5887,-98.6243,"15607 Chase Hill Blvd, San Antonio, TX, 78256",15607 Chase Hill Blvd,San Antonio,TX,78256,Bexar,210-877-8353
5857,29.4598,-98.6384,"7603 Culebra, San Antonio, TX, 78251",7603 Culebra,San Antonio,TX,78251,Bexar,210-680-0299
7831,29.5577,-98.6156,"6539 De Zavala Rd At The Corner Of Babcock Road, San Antonio, TX, 78249",6539 De Zavala Rd At The Corner Of Babcock Road,San Antonio,TX,78249,Bexar,210-561-1325
7832,29.4359,-98.6846,"9838 Potranco Rd, San Antonio, TX, 78251",9838 Potranco Rd,San Antonio,TX,78251,Bexar,210-509-0319
3551,29.6602,-98.4995,"23530 Wilderness Oak, San Antonio, TX, 78258",23530 Wilderness Oak,San Antonio,TX,78258,Bexar,210-481-7642
16853,29.4943,-98.5509,"4522 Fredericksburg Rd, San Antonio, TX, 78201",4522 Fredericksburg Rd,San Antonio,TX,78201,Bexar,210-280-0001
1201,29.4959,-98.5548,"4730 Fredricksburg Rd, San Antonio, TX, 78229",4730 Fredricksburg Rd,San Antonio,TX,78229,Bexar,210-348-8223
7341,29.4838,-98.6662,"9285 Culebra Ave, San Antonio, TX, 78251",9285 Culebra Ave,San Antonio,TX,78251,Bexar,210-521-5335
5512,29.4852,-98.3467,"7208 Fm 78, San Antonio, TX, 78244",7208 Fm 78,San Antonio,TX,78244,Bexar,210-666-0162
8990,29.5643,-98.686,"12980 Bandera Rd, Helotes, TX, 78023",12980 Bandera Rd,Helotes,TX,78023,Bexar,210-372-0386
17315,29.6539,-98.4449,"22832 Us Highway 281 N, San Antonio, TX, 78258",22832 Us Highway 281 N,San Antonio,TX,78258,Bexar,210-679-2369
10540,29.7203,-98.6654,"9089 Fair Oaks Parkway, Boerne, TX, 78015",9089 Fair Oaks Parkway,Boerne,TX,78015,Bexar,210-698-9538
7309,29.4896,-98.4587,"6470 N New Braunfels Ave, San Antonio, TX, 78209",6470 N New Braunfels Ave,San Antonio,TX,78209,Bexar,210-826-2391
8978,29.6439,-98.4806,"20203 Stone Oak Pkwy, San Antonio, TX, 78258",20203 Stone Oak Pkwy,San Antonio,TX,78258,Bexar,210-481-5598
17518,29.5166,-98.505,"746 Nw Loop 410, San Antonio, TX, 78216",746 Nw Loop 410,San Antonio,TX,78216,Bexar,210-424-2302
7301,29.5266,-98.4403,"3027 Nacogdoches Rd Corner Of Macarthur View, San Antonio, TX, 78217",3027 Nacogdoches Rd Corner Of Macarthur View,San Antonio,TX,78217,Bexar,210-824-5928
5872,29.6478,-98.6234,"22135 Ih-10 W, San Antonio, TX, 78257",22135 Ih-10 W,San Antonio,TX,78257,Bexar,210-698-1643
5858,29.5777,-98.3727,"15038 Nacogdoches Rd, San Antonio, TX, 78247",15038 Nacogdoches Rd,San Antonio,TX,78247,Bexar,210-646-7045
10905,29.5154,-98.7588,"13343 Culebra Road, San Antonio, TX, 78253",13343 Culebra Road,San Antonio,TX,78253,Bexar,210-507-5641
17095,29.4391,-98.6496,"8223 State Highway 151, San Antonio, TX, 78245",8223 State Highway 151,San Antonio,TX,78245,Bexar,210-247-0017
8325,29.6222,-98.5131,"19202 Blanco Rd, San Antonio, TX, 78258",19202 Blanco Rd,San Antonio,TX,78258,Bexar,210-497-2845
7829,29.5927,-98.5276,"16580 Huebner Rd, San Antonio, TX, 78248",16580 Huebner Rd,San Antonio,TX,78248,Bexar,210-479-8173
7460,29.5776,-98.4418,"14900 Jones Maltsberger Rd, San Antonio, TX, 78247",14900 Jones Maltsberger Rd,San Antonio,TX,78247,Bexar,210-496-9545
10179,29.4239,-98.4896,"300 East Commerce St, San Antonio, TX, 78205",300 East Commerce St,San Antonio,TX,78205,Bexar,210-228-9483
10750,29.5261,-98.7178,"9050 Fm 1560 N, San Antonio, TX, 78254",9050 Fm 1560 N,San Antonio,TX,78254,Bexar,210-688-9160
10311,29.6606,-98.4496,"2502 Marshall Rd, San Antonio, TX, 78259",2502 Marshall Rd,San Antonio,TX,78259,Bexar,210-497-5889
8389,29.519,-98.6036,"8602 Huebner Rd, San Antonio, TX, 78240",8602 Huebner Rd,San Antonio,TX,78240,Bexar,210-691-0174
10347,29.4176,-98.6779,"9686 Marbach Rd, San Antonio, TX, 78245",9686 Marbach Rd,San Antonio,TX,78245,Bexar,210-645-6933
11328,29.4439,-98.4768,"1915 Broadway Street Ste 101, San Antonio, TX, 78215",1915 Broadway Street Ste 101,San Antonio,TX,78215,Bexar,210-806-8741
17645,29.4896,-98.4475,"1223 Austin Hwy, San Antonio, TX, 78209",1223 Austin Hwy,San Antonio,TX,78209,Bexar,210-202-3579
10217,29.5427,-98.657,"10715 Bandera Rd, San Antonio, TX, 78250",10715 Bandera Rd,San Antonio,TX,78250,Bexar,210-647-9815
7716,29.554,-98.3086,"1836 Pat Booker Rd, Universal City, TX, 78148",1836 Pat Booker Rd,Universal City,TX,78148,Bexar,210-658-8011
7000,29.4849,-98.7342,"5301 Alamo Parkway, San Antonio, TX, 78253",5301 Alamo Parkway,San Antonio,TX,78253,Bexar,210-688-9311
10579,29.4684,-98.4632,"4600 Broadway St, San Antonio, TX, 78209",4600 Broadway St,San Antonio,TX,78209,Bexar,210-824-1679
17483,29.4934,-98.7102,"5355 W Loop 1604 N, San Antonio, TX, 78253",5355 W Loop 1604 N,San Antonio,TX,78253,Bexar,210-424-1911
4109,29.4301,-98.7473,"12835 Potranco Rd, San Antonio, TX, 78253",12835 Potranco Rd,San Antonio,TX,78253,Bexar,210-679-0250
7563,29.4249,-98.488,"211 Losoya St, San Antonio, TX, 78205",211 Losoya St,San Antonio,TX,78205,Bexar,210-224-9293
16693,29.6117,-98.5107,"18255 Blanco Rd, San Antonio, TX, 78258",18255 Blanco Rd,San Antonio,TX,78258,Bexar,210-764-7972
4897,32.9474,-87.1451,"155 Birmingham Road Suite 114, Centreville, AL, 35042",155 Birmingham Road Suite 114,Centreville,AL,35042,Bibb,205-926-4654
7504,32.7448,-83.7221,"4585 Hartley Bridge Rd, Macon, GA, 31216",4585 Hartley Bridge Rd,Macon,GA,31216,Bibb,478-781-9818
4765,32.8152,-83.6981,"4080 Bloomfield Rd, Macon, GA, 31206",4080 Bloomfield Rd,Macon,GA,31206,Bibb,478-781-4018
10357,32.9268,-83.7351,"1544 Bass Rd, Macon, GA, 31210",1544 Bass Rd,Macon,GA,31210,Bibb,478-471-4494
2472,32.8327,-83.662,"1390 Pio Nono Avenue, Macon, GA, 31204",1390 Pio Nono Avenue,Macon,GA,31204,Bibb,478-742-5281
4160,32.8807,-83.7733,"6381 Zebulon Rd, Macon, GA, 31220",6381 Zebulon Rd,Macon,GA,31220,Bibb,478-476-1911
7212,32.859,-83.6147,"1271 Gray Highway, Macon, GA, 31211",1271 Gray Highway,Macon,GA,31211,Bibb,478-743-6979
3772,32.826,-83.709,"4291 Mercer University Drive, Macon, GA, 31204",4291 Mercer University Drive,Macon,GA,31204,Bibb,478-477-0434
4255,32.746,-83.6731,"3012 Hartley Bridge Rd, Macon, GA, 31216",3012 Hartley Bridge Rd,Macon,GA,31216,Bibb,478-785-1962
4545,32.8997,-83.7027,"1615 Forest Hill Rd, Macon, GA, 31210",1615 Forest Hill Rd,Macon,GA,31210,Bibb,478-477-6648
16915,42.4658,-92.3277,"1501 E San Marnan Dr, Waterloo, IA, 50702",1501 E San Marnan Dr,Waterloo,IA,50702,Black Hawk,319-226-6761
8538,42.5398,-92.4735,"2302 W First St, Cedar Falls, IA, 50613",2302 W First St,Cedar Falls,IA,50613,Black Hawk,319-277-5181
8544,42.4675,-92.3213,"1825 E San Marnan Dr, Waterloo, IA, 50702",1825 E San Marnan Dr,Waterloo,IA,50702,Black Hawk,319-235-6248
8546,42.5041,-92.3369,"205 Franklin St, Waterloo, IA, 50703",205 Franklin St,Waterloo,IA,50703,Black Hawk,319-234-4736
17554,42.4828,-92.4447,"214 Viking Plaza Dr, Cedar Falls, IA, 50613",214 Viking Plaza Dr,Cedar Falls,IA,50613,Black Hawk,319-553-1121
6622,40.4639,-85.37,"1700 N Walnut St Po Box 109, Hartford City, IN, 47348",1700 N Walnut St Po Box 109,Hartford City,IN,47348,Blackford,765-348-4134
5508,34.6246,-78.6072,"371 S Poplar St / Po Box 2066, Elizabethtown, NC, 28337",371 S Poplar St / Po Box 2066,Elizabethtown,NC,28337,Bladen,910-862-2076
6633,34.982,-79.0167,"7496 Rockfish Rd, Fayetteville, NC, 28306",7496 Rockfish Rd,Fayetteville,NC,28306,Bladen,910-424-2905
4013,40.482,-78.4026,"200 East Plank Rd, Altoona, PA, 16602",200 East Plank Rd,Altoona,PA,16602,Blair,814-944-9224
7200,32.3918,-83.3479,"202 Ne Dykes St, Cochran, GA, 31014",202 Ne Dykes St,Cochran,GA,31014,Bleckley,478-934-9431
4854,33.9476,-86.4708,"602 1st Avenue East, Oneonta, AL, 35121",602 1st Avenue East,Oneonta,AL,35121,Blount,205-625-6420
7211,35.7563,-83.9489,"1625 E Lamar Alexander Hwy, Maryville, TN, 37804",1625 E Lamar Alexander Hwy,Maryville,TN,37804,Blount,865-984-3505
16598,35.7525,-83.9912,"800 Watkins Rd, Maryville, TN, 37801",800 Watkins Rd,Maryville,TN,37801,Blount,865-982-6523
6359,35.7667,-83.9716,"111 S Hall Rd Corner Of South Hall And Lincoln, Alcoa, TN, 37701",111 S Hall Rd Corner Of South Hall And Lincoln,Alcoa,TN,37701,Blount,865-983-0573
5671,35.7372,-83.993,"103 Foothills Mall Dr, Maryville, TN, 37801",103 Foothills Mall Dr,Maryville,TN,37801,Blount,865-982-3803
6635,44.1456,-93.99,"1610 Monks Avenue, Mankato, MN, 56001",1610 Monks Avenue,Mankato,MN,56001,Blue Earth,507-625-1553
16190,44.1729,-93.9513,"1850 Adams St, Mankato, MN, 56001",1850 Adams St,Mankato,MN,56001,Blue Earth,507-625-9009
3054,44.1662,-93.9771,"1175 Madison Ave, Mankato, MN, 56001",1175 Madison Ave,Mankato,MN,56001,Blue Earth,507-625-1791
6930,38.8877,-89.4074,"401 E Harris, Greenville, IL, 62246",401 E Harris,Greenville,IL,62246,Bond,618-664-2505
6666,40.0466,-86.4691,"207 S Lebanon St, Lebanon, IN, 46052",207 S Lebanon St,Lebanon,IN,46052,Boone,765-482-3630
6565,39.9509,-86.2806,"1466 W Oak St, Zionsville, IN, 46077",1466 W Oak St,Zionsville,IN,46077,Boone,317-873-6438
4727,39.9488,-86.3443,"6511 Whitestown Parkway, Zionsville, IN, 46077",6511 Whitestown Parkway,Zionsville,IN,46077,Boone,317-769-5986
6120,39.0031,-84.6218,"6801 Dixie Highway, Florence, KY, 41042",6801 Dixie Highway,Florence,KY,41042,Boone,859-282-6506
16557,39.0197,-84.634,"1100 Hansel Ave, Florence, KY, 41042",1100 Hansel Ave,Florence,KY,41042,Boone,859-371-2245
7648,38.9772,-84.6561,"8559 Us 42 Hwy, Florence, KY, 41042",8559 Us 42 Hwy,Florence,KY,41042,Boone,859-283-5362
16067,38.9642,-92.3777,"2400 Bernadette Dr, Columbia, MO, 65203",2400 Bernadette Dr,Columbia,MO,65203,Boone,573-445-9545
18080,38.9357,-92.3588,"1400 Forum Blvd, Columbia, MO, 65203",1400 Forum Blvd,Columbia,MO,65203,Boone,573-446-2804
4068,32.5553,-93.6136,"998 Hwy 80, Haughton, LA, 71037",998 Hwy 80,Haughton,LA,71037,Bossier Parish,318-390-7780
10218,32.5897,-93.7135,"4870 Airline Dr, Bossier City, LA, 71111",4870 Airline Dr,Bossier City,LA,71111,Bossier Parish,318-746-2924
17347,32.5586,-93.7066,"2735 Beene Blvd, Bossier City, LA, 71111",2735 Beene Blvd,Bossier City,LA,71111,Bossier Parish,318-678-6801
5323,32.5294,-93.7023,"3001 E Texas St, Bossier City, LA, 71111",3001 E Texas St,Bossier City,LA,71111,Bossier Parish,318-742-6600
5396,32.4589,-93.6618,"4890 Barksdale Blvd, Bossier City, LA, 71112",4890 Barksdale Blvd,Bossier City,LA,71112,Bossier Parish,318-747-4330
3336,37.4195,-79.9109,"48 Marketplace Dr, Daleville, VA, 24083",48 Marketplace Dr,Daleville,VA,24083,Botetourt,540-992-5757
16013,40.0217,-105.2559,"2800 Pearl St, Boulder, CO, 80301",2800 Pearl St,Boulder,CO,80301,Boulder,303-209-0102
17295,40.1533,-105.1343,"551 S Hover Rd, Longmont, CO, 80501",551 S Hover Rd,Longmont,CO,80501,Boulder,720-864-4394
16895,39.9565,-105.1744,"400 Marshall Rd, Louisville, CO, 80027",400 Marshall Rd,Louisville,CO,80027,Boulder,303-209-0107
3016,38.1931,-84.2759,"101 Lacy Lane, Paris, KY, 40361",101 Lacy Lane,Paris,KY,40361,Bourbon,859-988-9753
16933,33.4584,-94.0915,"102 Richmond Ranch Rd, Texarkana, TX, 75503",102 Richmond Ranch Rd,Texarkana,TX,75503,Bowie,903-223-0270
10055,33.4517,-94.0807,"1901 Richmond Rd, Texarkana, TX, 75503",1901 Richmond Rd,Texarkana,TX,75503,Bowie,903-255-0316
6347,38.4764,-82.6469,"1221 Lexington Avenue, Ashland, KY, 41101",1221 Lexington Avenue,Ashland,KY,41101,Boyd,606-324-2128
6335,37.6436,-84.7711,"231 South Second St Across From Mcdowell Hospital, Danville, KY, 40422",231 South Second St Across From Mcdowell Hospital,Danville,KY,40422,Boyle,859-236-2314
2188,29.9436,-82.1124,"209 S Temple St, Starke, FL, 32091",209 S Temple St,Starke,FL,32091,Bradford,904-964-7979
2565,41.7667,-76.4435,"110 Reuter Blvd, Towanda, PA, 18848",110 Reuter Blvd,Towanda,PA,18848,Bradford,570-268-0269
1091,41.992,-76.5288,"430 Keystone Ave, Sayre, PA, 18840",430 Keystone Ave,Sayre,PA,18840,Bradford,570-888-7763
3206,35.1779,-84.8644,"2424 Ocoee St, Cleveland, TN, 37311",2424 Ocoee St,Cleveland,TN,37311,Bradley,423-473-7874
3784,35.1993,-84.8446,"200 Stuart Rd Ne, Cleveland, TN, 37312",200 Stuart Rd Ne,Cleveland,TN,37312,Bradley,423-479-9703
17431,35.2187,-84.868,"4570 Frontage Rd Nw, Cleveland, TN, 37312",4570 Frontage Rd Nw,Cleveland,TN,37312,Bradley,423-790-3001
4093,35.1301,-84.8758,"2651 Apd-40 S Forke Plz, Cleveland, TN, 37323",2651 Apd-40 S Forke Plz,Cleveland,TN,37323,Bradley,423-472-2649
3733,35.1588,-84.886,"180 Keith St Sw, Cleveland, TN, 37311",180 Keith St Sw,Cleveland,TN,37311,Bradley,423-476-4539
8126,41.9397,-85.0034,"61 W Pearl St, Coldwater, MI, 49036",61 W Pearl St,Coldwater,MI,49036,Branch,517-278-6186
6307,38.659,-80.7489,"2907 State Street, Gassaway, WV, 26624",2907 State Street,Gassaway,WV,26624,Braxton,304-364-5161
16318,29.0505,-95.4649,"202 Highway 332 W, Lake Jackson, TX, 77566",202 Highway 332 W,Lake Jackson,TX,77566,Brazoria,979-299-2330
5807,29.5558,-95.368,"9522 Broadway St, Pearland, TX, 77584",9522 Broadway St,Pearland,TX,77584,Brazoria,713-436-8151
16791,29.5531,-95.3833,"3045 Silverlake Village Dr, Pearland, TX, 77584",3045 Silverlake Village Dr,Pearland,TX,77584,Brazoria,713-436-2516
11327,29.4386,-95.4333,"3232 Meridiana Parkway, Rosharon, TX, 77583",3232 Meridiana Parkway,Rosharon,TX,77583,Brazoria,281-595-6305
10461,29.5545,-95.4181,"12806 Broadway St, Pearland, TX, 77584",12806 Broadway St,Pearland,TX,77584,Brazoria,713-436-1298
6725,29.1703,-95.4342,"601 North Loop 274, Angleton, TX, 77515",601 North Loop 274,Angleton,TX,77515,Brazoria,979-849-8294
7470,29.1379,-95.6525,"701 South 17th St, West Columbia, TX, 77486",701 South 17th St,West Columbia,TX,77486,Brazoria,979-345-5119
6704,29.0448,-95.4489,"117 Oyster Creek Dr, Lake Jackson, TX, 77566",117 Oyster Creek Dr,Lake Jackson,TX,77566,Brazoria,979-297-3254
10908,29.5431,-95.3304,"7110 Magnolia Road, Pearland, TX, 77584",7110 Magnolia Road,Pearland,TX,77584,Brazoria,281-412-4713
10604,29.5269,-95.3821,"4489 County Road 94, Manvel, TX, 77578",4489 County Road 94,Manvel,TX,77578,Brazoria,281-692-9728
10603,29.4962,-95.4384,"15027 State Hwy 6, Rosharon, TX, 77583",15027 State Hwy 6,Rosharon,TX,77583,Brazoria,281-431-0601
7120,29.5786,-95.3988,"11600 Shadow Creek Pkwy, Pearland, TX, 77584",11600 Shadow Creek Pkwy,Pearland,TX,77584,Brazoria,713-436-8250
6727,29.4103,-95.2334,"1600 South Bypass 35, Alvin, TX, 77511",1600 South Bypass 35,Alvin,TX,77511,Brazoria,281-331-1536
6767,28.9571,-95.3734,"1853 West 2nd St, Freeport, TX, 77541",1853 West 2nd St,Freeport,TX,77541,Brazoria,979-233-5415
5877,29.5558,-95.2647,"2900 Broadway St, Pearland, TX, 77581",2900 Broadway St,Pearland,TX,77581,Brazoria,281-997-4400
6590,30.6429,-96.3534,"3000 S Texas Ave, Bryan, TX, 77802",3000 S Texas Ave,Bryan,TX,77802,Brazos,979-822-7344
6740,30.6081,-96.3093,"2411 Texas Ave S, College Station, TX, 77840",2411 Texas Ave S,College Station,TX,77840,Brazos,979-693-8085
17485,30.6654,-96.3219,"3061 Wildflower Dr, Bryan, TX, 77802",3061 Wildflower Dr,Bryan,TX,77802,Brazos,979-774-1481
7826,30.5836,-96.2865,"1800 Rock Prairie Rd, College Station, TX, 77845",1800 Rock Prairie Rd,College Station,TX,77845,Brazos,979-696-1075
16251,30.6102,-96.3151,"2100 Texas Ave S, College Station, TX, 77840",2100 Texas Ave S,College Station,TX,77840,Brazos,979-696-4368
10352,30.6213,-96.3425,"717 University Dr Suite 101, College Station, TX, 77840",717 University Dr Suite 101,College Station,TX,77840,Brazos,979-721-9125
3709,28.4772,-80.7696,"1185 Fay Blvd, Cocoa, FL, 32927",1185 Fay Blvd,Cocoa,FL,32927,Brevard,321-639-4650
1318,28.1652,-80.5882,"1596 Hwy A1a, Satellite Beach, FL, 32937",1596 Hwy A1a,Satellite Beach,FL,32937,Brevard,321-773-7611
16438,28.3862,-80.7052,"250 Crockett Blvd, Merritt Island, FL, 32953",250 Crockett Blvd,Merritt Island,FL,32953,Brevard,321-452-1691
5177,28.3792,-80.7031,"1345 North Courtenay Pkwy, Merritt Island, FL, 32953",1345 North Courtenay Pkwy,Merritt Island,FL,32953,Brevard,321-449-8641
4219,27.9992,-80.6385,"1101 Ne Malabar Rd, Palm Bay, FL, 32907",1101 Ne Malabar Rd,Palm Bay,FL,32907,Brevard,321-984-5477
3640,28.3562,-80.6997,"11 E Merritt Island Cswy, Merritt Island, FL, 32952",11 E Merritt Island Cswy,Merritt Island,FL,32952,Brevard,321-453-2540
6014,28.3313,-80.7422,"1696 S Fiske Blvd, Rockledge, FL, 32955",1696 S Fiske Blvd,Rockledge,FL,32955,Brevard,321-631-2939
5230,28.0327,-80.6721,"399 Emerson Dr Nw, Palm Bay, FL, 32907",399 Emerson Dr Nw,Palm Bay,FL,32907,Brevard,321-733-5103
5864,28.5582,-80.8233,"1820 Cheney Highway, Titusville, FL, 32780",1820 Cheney Highway,Titusville,FL,32780,Brevard,321-383-5420
4998,28.1571,-80.6727,"3050 N Wickham Rd, Melbourne, FL, 32935",3050 N Wickham Rd,Melbourne,FL,32935,Brevard,321-751-7524
573,28.1364,-80.6722,"1800 N Wickham Rd, Melbourne, FL, 32935",1800 N Wickham Rd,Melbourne,FL,32935,Brevard,321-259-2333
246,28.3574,-80.6087,"4292 N Atlantic Ave, Cocoa Beach, FL, 32931",4292 N Atlantic Ave,Cocoa Beach,FL,32931,Brevard,321-784-0503
4999,28.23,-80.7051,"7975 N Wickham Rd, Melbourne, FL, 32940",7975 N Wickham Rd,Melbourne,FL,32940,Brevard,321-751-7534
5439,28.0782,-80.6209,"15 E New Haven Avenue, Melbourne, FL, 32901",15 E New Haven Avenue,Melbourne,FL,32901,Brevard,321-409-3941
3151,28.0917,-80.5675,"100 N Miramar Ave, Indialantic, FL, 32903",100 N Miramar Ave,Indialantic,FL,32903,Brevard,321-724-5634
17343,28.5525,-80.8396,"3055 Columbia Blvd, Titusville, FL, 32780",3055 Columbia Blvd,Titusville,FL,32780,Brevard,321-360-1087
17571,28.0387,-80.6608,"4305 Norfolk Pkwy, Melbourne, FL, 32904",4305 Norfolk Pkwy,Melbourne,FL,32904,Brevard,321-821-7341
4280,28.3976,-80.7665,"2324 Sr 524, Cocoa, FL, 32926",2324 Sr 524,Cocoa,FL,32926,Brevard,321-636-9335
3294,28.036,-80.6224,"1599 Palm Bay Rd Ne, Palm Bay, FL, 32905",1599 Palm Bay Rd Ne,Palm Bay,FL,32905,Brevard,321-725-9961
16210,28.0805,-80.6655,"2750 W New Haven Ave, Melbourne, FL, 32904",2750 W New Haven Ave,Melbourne,FL,32904,Brevard,321-722-9262
3668,28.6148,-80.808,"5 Garden St, Titusville, FL, 32796",5 Garden St,Titusville,FL,32796,Brevard,321-383-0311
4686,28.2,-80.6726,"5590 North Wickham Rd, Melbourne, FL, 32940",5590 North Wickham Rd,Melbourne,FL,32940,Brevard,321-751-0090
17052,28.2276,-80.7198,"8455 N Wickham Rd, Melbourne, FL, 32940",8455 N Wickham Rd,Melbourne,FL,32940,Brevard,321-752-1870
3666,28.3293,-80.7192,"1820 Rockledge Blvd, Rockledge, FL, 32955",1820 Rockledge Blvd,Rockledge,FL,32955,Brevard,321-639-3240
1041,41.8841,-71.0672,"675 County Street, Taunton, MA, 02780",675 County Street,Taunton,MA,2780,Bristol,508-823-5376
17341,42.0278,-71.1436,"41 Robert Dr, South Easton, MA, 02375",41 Robert Dr,South Easton,MA,2375,Bristol,508-230-0006
7232,42.0249,-71.1193,"689 Depot St, North Easton, MA, 02356",689 Depot St,North Easton,MA,2356,Bristol,508-238-0604
789,41.6581,-70.9288,"136 Ashley Blvd, New Bedford, MA, 02746",136 Ashley Blvd,New Bedford,MA,2746,Bristol,508-996-2094
16547,41.878,-71.0693,"81 Taunton Depot Dr, Taunton, MA, 02780",81 Taunton Depot Dr,Taunton,MA,2780,Bristol,508-824-5848
799,41.6814,-70.9333,"786 Ashley Blvd, New Bedford, MA, 02745",786 Ashley Blvd,New Bedford,MA,2745,Bristol,508-998-3831
41,41.8887,-71.1201,"284 Winthrop St Taunton Plz, Taunton, MA, 02780",284 Winthrop St Taunton Plz,Taunton,MA,2780,Bristol,508-822-3658
2878,41.6992,-71.146,"550 Pleasant St, Fall River, MA, 02721",550 Pleasant St,Fall River,MA,2721,Bristol,508-678-3945
394,41.8882,-71.3325,"1479 Newman Ave, Seekonk, MA, 02771",1479 Newman Ave,Seekonk,MA,2771,Bristol,508-399-8801
17589,41.7493,-71.2067,"579 Gar Hwy, Swansea, MA, 02777",579 Gar Hwy,Swansea,MA,2777,Bristol,774-488-3685
1955,41.6145,-70.9374,"548 Dartmouth Street, South Dartmouth, MA, 02748",548 Dartmouth Street,South Dartmouth,MA,2748,Bristol,508-991-7934
610,41.6457,-70.8969,"10 Sarah's Way Route 6, Fairhaven, MA, 02719",10 Sarah's Way Route 6,Fairhaven,MA,2719,Bristol,508-999-0790
335,41.9057,-71.056,"266 Rte 44, Raynham, MA, 02767",266 Rte 44,Raynham,MA,2767,Bristol,508-824-1361
1866,42.0311,-71.2306,"261 Chauncy Street, Mansfield, MA, 02048",261 Chauncy Street,Mansfield,MA,2048,Bristol,508-339-6711
16713,41.7961,-71.3203,"79 Commerce Way, Seekonk, MA, 02771",79 Commerce Way,Seekonk,MA,2771,Bristol,508-336-1107
7140,41.66,-71.0838,"599 State Rd, Westport, MA, 02790",599 State Rd,Westport,MA,2790,Bristol,508-673-3072
17247,41.6371,-71.0025,"479 State Rd, North Dartmouth, MA, 02747",479 State Rd,North Dartmouth,MA,2747,Bristol,508-979-7531
685,41.6369,-70.9565,"1145 Kempton Street, New Bedford, MA, 02740",1145 Kempton Street,New Bedford,MA,2740,Bristol,508-999-3241
492,41.6792,-70.9227,"2100 Acushnet Avenue, New Bedford, MA, 02745",2100 Acushnet Avenue,New Bedford,MA,2745,Bristol,508-995-2653
1864,41.9495,-71.2888,"191 N Main St, Attleboro, MA, 02703",191 N Main St,Attleboro,MA,2703,Bristol,508-222-0880
237,41.7317,-71.173,"1587 Brayton Point Rd, Somerset, MA, 02725",1587 Brayton Point Rd,Somerset,MA,2725,Bristol,508-673-9691
1896,41.9524,-71.2716,"486 Pleasant Street, Attleboro, MA, 02703",486 Pleasant Street,Attleboro,MA,2703,Bristol,508-222-6020
6466,41.7683,-71.2648,"2340 Gar Highway, Swansea, MA, 02777",2340 Gar Highway,Swansea,MA,2777,Bristol,508-379-9080
16548,41.9401,-71.3524,"1205 S Washington St, North Attleboro, MA, 02760",1205 S Washington St,North Attleboro,MA,2760,Bristol,508-695-9335
207,41.7129,-71.1275,"1620 President Avenue, Fall River, MA, 02720",1620 President Avenue,Fall River,MA,2720,Bristol,508-672-2403
2206,41.9193,-71.3582,"366 Washington Street, Attleboro, MA, 02703",366 Washington Street,Attleboro,MA,2703,Bristol,508-761-7392
938,41.9673,-71.3384,"8 East Washington Street Intersection Of Routes 1 And 1a, North Attleboro, MA, 02760",8 East Washington Street Intersection Of Routes 1 And 1a,North Attleboro,MA,2760,Bristol,508-695-1481
1110,41.7516,-71.1206,"4171 North Main Street, Fall River, MA, 02720",4171 North Main Street,Fall River,MA,2720,Bristol,508-677-3555
20,41.6743,-71.1624,"245 William S Canning Blvd, Fall River, MA, 02721",245 William S Canning Blvd,Fall River,MA,2721,Bristol,508-678-9031
513,41.9371,-71.0836,"252 Broadway, Raynham, MA, 02767",252 Broadway,Raynham,MA,2767,Bristol,508-824-8621
972,42.049,-71.0843,"555 Washington Street, South Easton, MA, 02375",555 Washington Street,South Easton,MA,2375,Bristol,508-238-3476
5826,42.088,-71.093,"2 Roche Brothers Way Roche Brothers Plaza, North Easton, MA, 02356",2 Roche Brothers Way Roche Brothers Plaza,North Easton,MA,2356,Bristol,508-230-0259
5402,41.9027,-71.0983,"7 Washington St, Taunton, MA, 02780",7 Washington St,Taunton,MA,2780,Bristol,508-821-5605
1877,41.9651,-71.1908,"35 W Main St, Norton, MA, 02766",35 W Main St,Norton,MA,2766,Bristol,508-285-4032
645,41.6802,-71.2599,"400 Metacom Avenue, Bristol, RI, 02809",400 Metacom Avenue,Bristol,RI,2809,Bristol,401-253-2050
265,41.7181,-71.2691,"615 Metacom Avenue Route 136, Warren, RI, 02885",615 Metacom Avenue Route 136,Warren,RI,2885,Bristol,401-245-0400
210,41.7365,-71.3045,"180 County Road, Barrington, RI, 02806",180 County Road,Barrington,RI,2806,Bristol,401-245-0512
7365,36.6146,-82.1718,"31 East Valley Dr, Bristol, VA, 24201",31 East Valley Dr,Bristol,VA,24201,Bristol city,276-669-4640
2430,40.8245,-73.9197,"224 East 161st Street, Bronx, NY, 10451",224 East 161st Street,Bronx,NY,10451,Bronx,718-588-5700
7067,40.8526,-73.8534,"1916 Williamsbridge Road, Bronx, NY, 10461",1916 Williamsbridge Road,Bronx,NY,10461,Bronx,718-239-7569
2551,40.8736,-73.8796,"3125 Bainbridge Avenue, Bronx, NY, 10467",3125 Bainbridge Avenue,Bronx,NY,10467,Bronx,718-696-1958
8969,40.8353,-73.9206,"50-56 East 167th St, Bronx, NY, 10452",50-56 East 167th St,Bronx,NY,10452,Bronx,718-588-6898
7066,40.8858,-73.9103,"565 West 235th Street, Bronx, NY, 10463",565 West 235th Street,Bronx,NY,10463,Bronx,718-543-2007
17649,40.8232,-73.8366,"815 Hutchinson River Pkwy, Bronx, NY, 10465",815 Hutchinson River Pkwy,Bronx,NY,10465,Bronx,718-536-2690
2438,40.817,-73.9221,"282 East 149th Street, Bronx, NY, 10451",282 East 149th Street,Bronx,NY,10451,Bronx,718-665-5600
2433,40.8538,-73.8674,"2112 White Plains Road, Bronx, NY, 10462",2112 White Plains Road,Bronx,NY,10462,Bronx,718-597-3000
2437,40.8652,-73.866,"732 Allerton Avenue, Bronx, NY, 10467",732 Allerton Avenue,Bronx,NY,10467,Bronx,718-654-4388
8940,40.8304,-73.8717,"1688 Westchester Ave, Bronx, NY, 10472",1688 Westchester Ave,Bronx,NY,10472,Bronx,718-842-2217
2697,40.8524,-73.8275,"3681 Bruckner Blvd Corner Of Bruckner Boulevard, Bronx, NY, 10461",3681 Bruckner Blvd Corner Of Bruckner Boulevard,Bronx,NY,10461,Bronx,718-518-7496
16921,40.8733,-73.9072,"40 W 225th St, Bronx, NY, 10463",40 W 225th St,Bronx,NY,10463,Bronx,718-733-6927
17526,40.8205,-73.9305,"700 Exterior St, Bronx, NY, 10451",700 Exterior St,Bronx,NY,10451,Bronx,718-401-5652
3096,40.8256,-73.8208,"3775 E Tremont Ave, Bronx, NY, 10465",3775 E Tremont Ave,Bronx,NY,10465,Bronx,718-597-3757
168,42.1289,-76.0302,"800 Hooper Rd Suite 500, Endicott, NY, 13760",800 Hooper Rd Suite 500,Endicott,NY,13760,Broome,607-757-2618
566,42.1094,-75.9042,"34 West State Street, Binghamton, NY, 13901",34 West State Street,Binghamton,NY,13901,Broome,607-722-2331
754,42.0987,-75.9501,"37 Riverside Drive, Johnson City, NY, 13790",37 Riverside Drive,Johnson City,NY,13790,Broome,607-729-1588
562,42.1163,-75.9612,"345 Main Street, Johnson City, NY, 13790",345 Main Street,Johnson City,NY,13790,Broome,607-729-6549
16441,42.0948,-76.0029,"3112 Vestal Pkwy E, Vestal, NY, 13850",3112 Vestal Pkwy E,Vestal,NY,13850,Broome,607-729-6204
678,42.1102,-76.0704,"1008 Union Center Maine Hwy, Endicott, NY, 13760",1008 Union Center Maine Hwy,Endicott,NY,13760,Broome,607-754-2240
781,42.1593,-75.8956,"1276 Upper Front St, Binghamton, NY, 13901",1276 Upper Front St,Binghamton,NY,13901,Broome,607-722-0354
561,42.0986,-75.9141,"34-38 Court Street, Binghamton, NY, 13901",34-38 Court Street,Binghamton,NY,13901,Broome,607-722-2351
1951,42.1047,-76.0503,"1103 North St, Endicott, NY, 13760",1103 North St,Endicott,NY,13760,Broome,607-748-1565
625,42.107,-75.9379,"249-253 1/2 Main Street, Binghamton, NY, 13905",249-253 1/2 Main Street,Binghamton,NY,13905,Broome,607-729-5066
2180,42.1079,-75.8893,"163 Robinson Street, Binghamton, NY, 13904",163 Robinson Street,Binghamton,NY,13904,Broome,607-722-4976
565,42.0865,-76.0552,"138 Vestal Parkway West, Vestal, NY, 13850",138 Vestal Parkway West,Vestal,NY,13850,Broome,607-748-7421
458,42.0865,-75.9168,"50 Pennsylvania Avenue, Binghamton, NY, 13903",50 Pennsylvania Avenue,Binghamton,NY,13903,Broome,607-772-0656
2414,42.1231,-75.9579,"269 Harry L Drive, Johnson City, NY, 13790",269 Harry L Drive,Johnson City,NY,13790,Broome,607-729-3414
17276,39.959,-104.9957,"14451 Orchard Pkwy, Broomfield, CO, 80023",14451 Orchard Pkwy,Broomfield,CO,80023,Broomfield,303-209-0164
3609,26.1032,-80.3635,"1120 Weston Rd, Fort Lauderdale, FL, 33326",1120 Weston Rd,Fort Lauderdale,FL,33326,Broward,954-384-7667
5247,26.2598,-80.2492,"2353 University Dr, Coral Springs, FL, 33065",2353 University Dr,Coral Springs,FL,33065,Broward,954-757-6330
5079,26.1213,-80.2859,"10241 W Broward Blvd, Fort Lauderdale, FL, 33324",10241 W Broward Blvd,Fort Lauderdale,FL,33324,Broward,954-236-0769
3905,26.2305,-80.1582,"3 S Pompano Pkwy, Pompano Beach, FL, 33069",3 S Pompano Pkwy,Pompano Beach,FL,33069,Broward,954-971-4940
1147,26.0098,-80.2494,"70 N University Dr, Hollywood, FL, 33024",70 N University Dr,Hollywood,FL,33024,Broward,954-432-5510
17339,26.2966,-80.2524,"9600 Westview Dr, Pompano Beach, FL, 33076",9600 Westview Dr,Pompano Beach,FL,33076,Broward,954-282-5001
3607,26.0071,-80.2947,"11100 Pines Blvd, Hollywood, FL, 33026",11100 Pines Blvd,Hollywood,FL,33026,Broward,954-432-6804
10078,25.9863,-80.1265,"2101 E Hallandale Beach Blvd, Hallandale, FL, 33009",2101 E Hallandale Beach Blvd,Hallandale,FL,33009,Broward,954-457-4949
